AtcoCode,PlateCode,CommonName,ShortCommonName,CommonNameGA,ShortCommonNameGA,Street,NptgLocalityRef,Easting,Northing,Latitude,Longitude,StopType,BusStopType,TimingStatus,CompassPoint,StopAreaRef,AdministrativeAreaRef,Status,CreationDateTime,ModificationDateTime
7010PB003857,,Ballymagrorty,Ballymagrorty,B Mhic Robhartaigh,B Mhic Robhartaigh,,E0701003,641057,920841,55.0334043,-7.3577718,BCT,CUS,OTH,NW,,701,active,1969-12-31T00:00:00.000,2021-06-01T16:08:18.000
7010PB003858,,Coshquin,,,,,E0701003,641054,920860,55.0335753,-7.3578159,BCT,CUS,OTH,N,,701,active,1969-12-31T00:00:00.000,2016-10-28T15:12:27.000
7010PB003859,,Culmore Point,,,,Culmore Road,E0701003,646370,922263,55.0457123,-7.2744401,BCT,CUS,OTH,N,,701,active,1969-12-31T00:00:00.000,1969-12-31T23:00:00.000
7010PB003860,,Culmore Point,,,,Culmore Road,E0701003,646379,922262,55.0457025,-7.2742994,BCT,CUS,OTH,N,,701,active,1969-12-31T00:00:00.000,1969-12-31T23:00:00.000
7010B158131,158131,Ulsterbus Depot,Ulsterbus Depot,Busáras Ulsterbus,Busáras Ulsterbus,,E0701001,643648,916772,54.9966288,-7.3178663,BCT,MKD,OTH,N,,701,active,2000-01-01T00:00:00.000,2021-06-17T18:10:53.000
701000002,,Patrick Street,Patrick Street,Sráid Phádraig,Sráid Phádraig,,E0701001,643337,917142,54.9999799,-7.3226703,BCT,MKD,OTH,N,,701,active,2020-05-07T00:00:00.000,2021-06-29T11:19:32.000
701000001,,Water Street,Water Street,Sráid an Uisce,Sráid an Uisce,,E0701001,643683,916710,54.9960687,-7.3173289,BCT,CUS,OTH,N,,701,active,2016-10-04T00:00:00.000,2021-06-24T13:56:41.000
701000004,,Dungiven,Dungiven,Dún Geimhin,Dún Geimhin,,E0701001,669220,909127,54.9250579,-6.9201336,BCT,MKD,OTH,S,,701,active,2019-10-18T00:00:00.000,2021-06-28T12:45:01.000
701000005,,Dungiven,Dungiven,Dún Geimhin,Dún Geimhin,,E0701001,669288,909066,54.9245005,-6.9190877,BCT,MKD,OTH,N,,701,active,2019-10-18T00:00:00.000,2021-06-28T12:45:39.000
701000003,,Guild Hall,Guild Hall,Halla Guild,Halla Guild,,E0701001,643562,916870,54.9975167,-7.3191953,BCT,MKD,OTH,N,,701,active,2019-10-18T00:00:00.000,2021-06-29T11:14:08.000
7010B158241,158241,Magee Campus,Magee Campus,Campas Mhig Aoidh,Campas Mhig Aoidh,Boating Club Lane,E0701001,643342,917473,55.002956,-7.322545,BCT,CUS,OTH,N,,701,active,2015-05-01T00:00:00.000,2023-10-16T10:18:36.716
7010GA00002,,Magilligan Ferry Port,,,,,E0701004,665851,938678,55.1909671,-6.9658616,FTD,,,,,701,active,2021-11-24T10:00:00.000,2021-11-24T10:00:00.000
701000007,,Foyleside Coach Park,Foyleside Coach Pk,,,,E0701001,643685,916491,54.9941011,-7.317331,BCT,CUS,OTH,N,,701,active,2023-01-18T00:00:00.000,2023-05-29T11:58:56.089
701000006,,Drumahow Park & Ride,Drumahoe,,,,E0701001,646039,914700,54.9777992,-7.2808357,BCT,CUS,OTH,N,,701,active,2023-01-18T00:00:00.000,2023-05-29T11:44:01.398
7020IR2162,,Belfast,,Béal Feirste,,,E0702001,734593,873916,54.595573,-5.917156,RLY,,,,,702,active,1969-12-31T00:00:00.000,2022-02-28T10:32:41.642
7020IR0037,,Lisburn,,Lion a gCearrbhach,,,E0702002,726577,864586,54.513863,-6.045132,RLY,,,,,702,active,1969-12-31T00:00:00.000,2022-02-28T10:35:35.218
7.02E+11,,Jury's Inn,Jury's Inn,Ostán Jurys,Ostán Jurys,,E0702001,733452,873959,54.5962602,-5.934783,BCT,MKD,OTH,S,,702,active,2019-10-18T00:00:00.000,2021-06-25T17:29:27.000
7.02E+11,,Downpatrick,Downpatrick,Dún Pádraig,Dún Pádraig,,E0702002,748321,844302,54.3258546,-5.7197307,BCT,CUS,OTH,N,,702,active,1969-12-31T00:00:00.000,2021-06-21T11:26:31.000
7.02E+11,,DNPTR,,,,,E0702002,748321,844302,54.3258546,-5.7197307,BCT,CUS,OTH,N,,702,active,1969-12-31T00:00:00.000,2021-06-21T11:26:37.000
7.02E+11,,Glengall Street,Glengall Street,Sráid Ghleann Gall,Sráid Ghleann Gall,,E0702001,733300,873824,54.5950881,-5.9371949,BCT,MKD,OTH,N,,702,active,2013-11-27T00:00:00.000,2023-09-20T09:39:17.766
7.02E+11,,Europa Bus Centre,Europa Bus Centre,Ionad Busanna Europa,Ionad Busanna Europa,Glengall Street,E0702001,733340,873770,54.5945926,-5.9366008,BCT,CUS,OTH,E,,702,active,2000-01-01T00:00:00.000,2021-06-17T17:31:45.000
7.02E+11,,Europa Bus Centre,Europa Bus Centre,Ionad Busanna Europa,Ionad Busanna Europa,Glengall Street,E0702001,733343,873758,54.5944841,-5.9365599,BCT,CUS,OTH,E,,702,active,2000-01-01T00:00:00.000,2021-06-17T17:31:52.000
7.02E+11,,Europa Bus Centre,Europa Bus Centre,Ionad Busanna Europa,Ionad Busanna Europa,,E0702001,733360,873822,54.5950543,-5.9362679,BCT,CUS,OTH,W,,702,active,2000-01-01T00:00:00.000,2021-06-17T17:32:00.000
7020GA00001,,Strangford,,,,,E0702001,758878,849744,54.3715339,-5.5546864,FTD,,,,,702,active,2021-11-24T10:00:00.000,2021-11-24T10:00:00.000
7020GA00002,,Portaferry Ferry Port,,,,,E0702001,759131,850751,54.380495,-5.550258,FTD,,,,,702,active,2021-11-24T10:00:00.000,2021-11-24T10:00:00.000
70200B156091,156091,Glengall Street,Glengall Street,Sráid Ghleann Gall,Sráid Ghleann Gall,,E0702001,733300,873824,54.5950881,-5.9371949,BCT,MKD,OTH,N,,702,active,2013-11-27T00:00:00.000,2022-04-27T11:57:24.000
702000001,,Belfast International Airport,Belfast Airport,,,,E0702001,714974,880823,54.6624429,-6.2178774,BCT,CUS,OTH,N,,702,active,2023-01-18T00:00:00.000,2023-05-05T15:26:14.167
7.03E+11,,Clough,Clough,An Chloch,An Chloch,,E0703001,740769,840260,54.2916988,-5.8376444,BCT,MKD,OTH,N,,703,active,2000-01-01T00:00:00.000,2021-06-17T16:43:22.000
7.03E+11,,Clough,Clough,An Chloch,An Chloch,,E0703001,740768,840283,54.2919056,-5.8376489,BCT,CUS,OTH,N,,703,active,2000-01-01T00:00:00.000,2021-06-17T16:43:28.000
7.03E+11,,Banbridge,Banbridge,Droichead na Banna,Droichead na Banna,Newry Street,E0703001,712376,845574,54.3464551,-6.2715428,BCT,MKD,OTH,SW,,703,active,2000-01-01T00:00:00.000,2022-10-25T15:03:15.000
7040IR0090,,Lurgan,,An Lorgain,,,E0704003,707705,858884,54.467011,-6.338528,RLY,,,,,704,active,1969-12-31T00:00:00.000,2022-02-28T10:36:28.296
7040IR0042,,Newry,,An tIúr,,,E0704001,706876,827874,54.188659,-6.362413,RLY,,,,,704,active,1969-12-31T00:00:00.000,2023-02-16T17:06:50.467
7040IR0045,,Portadown,,Port an Dúnáin,,,E0704002,700886,854051,54.424993,-6.445312,RLY,,,,,704,active,1969-12-31T00:00:00.000,2022-02-28T10:41:56.198
7.04E+11,,Hilltown,Hilltown,Baile Hill,Baile Hill,,E0704001,720999,828919,54.194908,-6.1457153,BCT,MKD,OTH,N,,704,active,1969-12-31T00:00:00.000,2021-06-21T09:22:42.000
7.04E+11,,Hilltown,Hilltown,Baile Hill,Baile Hill,,E0704001,721017,828906,54.194787,-6.1454448,BCT,CUS,OTH,N,,704,active,1969-12-31T00:00:00.000,2021-06-21T09:22:47.000
7.04E+11,,Rathfriland,Rathfriland,Ráth Fraoileann,Ráth Fraoileann,,E0704001,720044,833531,54.2365525,-6.1584997,BCT,CUS,OTH,N,,704,active,1969-12-31T00:00:00.000,2021-06-23T09:46:40.000
7040B158011,158011,Lonsdale Road Bus Station,,Lonsdale Road,,,E0704004,687479,845693,54.3524001,-6.6543155,BCT,MKD,OTH,N,,704,active,1969-12-31T00:00:00.000,2022-10-12T15:05:12.000
7.04E+11,,Lonsdale Road Bus Station,,,,,E0704004,687480,845687,54.352346,-6.6543019,BCT,CUS,OTH,N,,704,active,1969-12-31T00:00:00.000,2021-06-21T09:24:40.000
7040B558051,,Portadown,Portadown,Port an Dúnáin,Port an Dúnáin ,,E0704002,700877,853695,54.4218013,-6.4455787,BCT,MKD,OTH,N,,704,active,1969-12-31T00:00:00.000,2021-06-18T15:27:35.000
7040B558021,,Portadown,Portadown,Port an Dúnáin,Port an Dúnáin,,E0704002,701018,853813,54.4228332,-6.4433667,BCT,MKD,OTH,N,,704,active,1969-12-31T00:00:00.000,2021-06-21T09:28:48.000
7040B558041,,Lurgan,Lurgan,An Lorgain,An Lorgain,,E0704003,703726,858818,54.4672421,-6.3999037,BCT,MKD,OTH,N,,704,active,1969-12-31T00:00:00.000,2021-06-21T10:44:27.000
7.04E+11,,Castlewellan,Castlewellan,Caisleán Uidhilín,Caisleán Uidhilín,,E0704001,733932,836207,54.2571405,-5.9444037,BCT,MKD,OTH,N,,704,active,2000-01-01T00:00:00.000,2021-06-17T16:29:09.000
7.04E+11,,Castlewellan,Castlewellan,Caisleán Uidhilín,Caisleán Uidhilín,,E0704001,733933,836190,54.2569876,-5.944396,BCT,MKD,OTH,N,,704,active,2000-01-01T00:00:00.000,2021-06-17T16:29:17.000
7.04E+11,,Dundrum,Dundrum,Dún Droma,Dún Droma,,E0704001,740446,836456,54.2576309,-5.8443863,BCT,CUS,OTH,N,,704,active,1969-12-31T00:00:00.000,2021-06-17T16:35:32.000
7.04E+11,,Dundrum,Dundrum,Dún Droma,Dún Droma,,E0704001,740460,836451,54.2575822,-5.8441739,BCT,CUS,OTH,N,,704,active,1969-12-31T00:00:00.000,2021-06-17T16:35:40.000
7040B139781,139781,Meigh Cross,Meigh Cross,Crosaire na Maí,Crosaire na Maí,Dublin Road,E0704001,707409,819782,54.115863,-6.357129,BCT,MKD,OTH,N,,704,active,2015-05-01T00:00:00.000,2023-08-25T11:41:04.807
7040B139771,139771,Killeen Bridge,Killeen Bridge,Dr an Cillín,Dr an Cillín,,E0704001,708066,821485,54.1310231,-6.3464789,BCT,CUS,OTH,N,,704,active,2015-05-01T00:00:00.000,2021-06-21T11:30:12.000
7.04E+11,,Killeen Bridge,Killeen Bridge,Dr an Cillín,Dr an Cillín,,E0704001,708092,821484,54.1310086,-6.3460816,BCT,CUS,OTH,N,,704,active,2015-05-01T00:00:00.000,2021-06-21T11:30:22.000
7040B139491,139491,Buttercrane SC,Buttercrane SC,IS Chraein an Ime,IS Chraein an Ime,,E0704001,708315,826150,54.1728715,-6.3409957,BCT,MKD,OTH,N,,704,active,2015-05-01T00:00:00.000,2021-11-10T16:34:04.000
7040B139501,139501,Newry,Newry,An tIúr,An tIúr,Buttercrane Quay,E0704001,708353,826079,54.172227,-6.340441,BCT,MKD,OTH,N,,704,active,2015-05-01T00:00:00.000,2023-10-16T15:59:24.435
7040B139481,139481,Newry,Newry,An tIúr,An tIúr,,E0704001,708451,825639,54.168253,-6.3390976,BCT,MKD,OTH,N,,704,active,2015-05-01T00:00:00.000,2021-06-21T12:39:51.000
7040B107131,107131,Cullaville,Cullaville,Baile Mhic Cullach,Baile Mhic Cullach,,E0704001,688801,813396,54.0620448,-6.6435252,BCT,MKD,OTH,N,,704,active,2015-05-11T00:00:00.000,2021-06-21T11:38:05.000
7.04E+11,,Culloville,,,,,E0704001,688789,813377,54.0618762,-6.643714,BCT,CUS,OTH,N,,704,active,2015-09-07T00:00:00.000,2021-06-21T11:38:00.000
7.04E+11,,Mayobridge,Mayobridge,Droichead Mhaigh Eo,Droichead Mhaigh Eo,,E0704001,715453,827177,54.1805403,-6.2313289,BCT,CUS,OTH,N,,704,active,1969-12-31T00:00:00.000,2021-06-21T09:18:57.000
7.04E+11,,Mayobridge,Mayobridge,Droichead Mhaigh Eo,Droichead Mhaigh Eo,,E0704001,715469,827171,54.1804828,-6.2310862,BCT,CUS,OTH,N,,704,active,1969-12-31T00:00:00.000,2021-06-21T09:18:50.000
7.04E+11,,Newcastle,Newcastle,An Caisleán Nua,An Caisleán Nua,,E0704001,737730,831631,54.2150428,-5.8882548,BCT,CUS,OTH,N,,704,active,1969-12-31T00:00:00.000,2021-06-21T09:18:03.000
7.04E+11,,Newcastle,Newcastle,An Caisleán Nua,An Caisleán Nua,,E0704001,737730,831631,54.2150428,-5.8882548,BCT,CUS,OTH,N,,704,active,1969-12-31T00:00:00.000,2021-06-21T09:18:10.000
7.04E+11,,Kilcoo,Kilcoo,Cill Chua,Cill Chua,,E0704001,728394,833176,54.2313402,-6.0306418,BCT,CUS,OTH,N,,704,active,1969-12-31T00:00:00.000,2021-06-21T09:13:13.000
7.04E+11,,Kilcoo,Kilcoo,Cill Chua,Cill Chua,,E0704001,728389,833186,54.2314312,-6.0307141,BCT,CUS,OTH,N,,704,active,1969-12-31T00:00:00.000,2021-06-21T09:13:19.000
7040B156051,156051,Newry,Newry,An tIúr,An tIúr,,E0704001,708407,826501,54.176002,-6.339467,BCT,MKD,OTH,SW,,704,active,2000-01-01T00:00:00.000,2023-10-17T09:48:59.406
7.04E+11,,Newry Bus Station,,,,,E0704001,708416,826486,54.1758681,-6.3393286,BCT,CUS,OTH,N,,704,active,2015-06-25T00:00:00.000,2021-06-17T18:09:13.000
7040B150611,150611,Monaghan Street,Monaghan Street,Sráid Mhuineacháin,Sráid Mhuineacháin,Patrick Street,E0704001,708021,826546,54.176486,-6.34535,BCT,MKD,OTH,W,,704,active,2000-01-01T00:00:00.000,2023-10-16T11:09:06.063
7040B156061,156061,Newry Bus Station,Newry Bus Station,Stáisiún Bus An tIúr,Stáisiún Bus An tIúr,Merchants Quay  ,E0704001,708365,826388,54.1749986,-6.340145,BCT,MKD,OTH,N,,704,active,2021-08-30T00:00:00.000,2021-10-11T12:11:55.000
7040GA00004,,Greencastle Ferry,,,,,E0704001,724513,811554,54.0381158,-6.0990481,FTD,,,,,704,active,2021-11-24T10:00:00.000,2021-11-24T10:00:00.000
7040B139761,139761,Killeen Bridge,Killeen Bridge,Dr an Cillín,Dr an Cillín,,E0704001,708092,821484,54.1310086,-6.3460816,BCT,CUS,OTH,N,,704,active,2015-05-01T00:00:00.000,2022-01-04T15:16:36.000
7040B139511,139511,Newry (Opp Quay Shopping Centre),Newry,An tIár,An tIár,Albert Basin,E0704004,708455,825688,54.1686922,-6.3390189,BCT,MKD,OTH,N,,704,active,2023-03-29T13:54:24.950,2023-03-29T13:54:24.950
7040B139791,139791,Meigh Cross (Service Station),Meigh Cross,Crosaire na Mai,Crosaire na Mai,Dublin Road,E0704004,707399,819785,54.1158922,-6.3572786,BCT,MKD,OTH,N,,704,active,2023-03-29T15:17:13.265,2023-03-29T15:17:13.265
7050B1520901,,Topaz Belleek,Topaz Belleek,Béal Leice Topaz,Béal Leice Topaz,N3,E0705003,593617,858769,54.4773535,-8.0984855,BCT,CUS,OTH,NW,853G000111,705,active,2000-01-01T00:00:00.000,2013-10-16T10:20:37.000
7050B108081,108081,Enniskillen,Enniskillen,Inis Ceithleann,Inis Ceithleann,Friths Pass,E0705002,623403,843949,54.3436944,-7.6400789,BCT,MKD,OTH,NE,,705,active,1969-12-31T00:00:00.000,2019-10-09T09:33:49.000
7050B1409001,140901,Bellanaleck,Bellanaleck,Bealach na Leice,Bealach na Leice,,E0705002,623565,838531,54.2950047,-7.6380151,BCT,CUS,OTH,N,,705,active,2000-01-01T00:00:00.000,2017-03-14T15:36:45.000
7050B631071,631071,Loughview Drive,Loughview Drive,Loughview Drive,Loughview Drive,Pearse Road,E0705002,608455,838742,54.2973739,-7.8701145,BCT,MKD,OTH,S,851G000022,705,active,1969-12-31T00:00:00.000,2022-10-10T11:13:22.000
7050B8004282,,Enniskillen,Enniskillen,Inis Ceithleann,Inis Ceithleann,Broadmeadow,E0705002,623417,843950,54.3437028,-7.6398635,BCT,MKD,OTH,NE,,705,active,1969-12-31T00:00:00.000,2021-06-01T15:56:00.000
7050B1415501,141551,Bellanaleck,Bellanaleck,Bealach na Leice,Bealach na Leice,,E0705002,623577,838537,54.2950581,-7.6378303,BCT,CUS,OTH,N,,705,active,2000-01-01T00:00:00.000,2017-03-14T15:36:45.000
7050B141561,141561,Derrylin,Derrylin,Doire Loinn,Doire Loinn,Main Street,E0705001,628341,827058,54.191678,-7.565736,BCT,MKD,OTH,N,,705,active,1969-12-31T00:00:00.000,2023-10-16T09:34:32.565
7050B140871,140871,Derrylin,Derrylin,Doire Loinn,Doire Loinn,Main Street,E0705001,628328,827058,54.191672,-7.565929,BCT,MKD,OTH,N,,705,active,1969-12-31T00:00:00.000,2023-10-16T09:35:22.532
7050B630101,630101,Letterbreen,Letterbreen,Leitir Bhruín,Leitir Bhruín,,E0705002,617430,840116,54.3094926,-7.7321618,BCT,MKD,OTH,N,,705,active,2016-03-29T00:00:00.000,2021-06-21T11:02:51.000
7050B630091,630091,Letterbreen,Letterbreen,Leitir Bhruín,Leitir Bhruín,,E0705002,617396,840093,54.3092871,-7.7326856,BCT,MKD,OTH,N,,705,active,2016-03-29T00:00:00.000,2021-06-21T11:02:43.000
7.05E+11,,Lisnarick,Lisnarick,,,,E0705002,619373,858495,54.4745621,-7.7011073,BCT,MKD,OTH,N,,705,active,2013-10-24T00:00:00.000,2021-06-17T16:10:34.000
7.05E+11,,Lisnarick,,,,,E0705002,619366,858500,54.4746073,-7.701215,BCT,CUS,OTH,N,,705,active,2013-10-24T00:00:00.000,2021-06-17T16:10:27.000
7.05E+11,,Shore Road Car Park,,,,,E0705002,623536,843926,54.3434817,-7.6380353,BCT,CUS,OTH,N,,705,active,2013-10-24T00:00:00.000,2021-06-17T16:11:35.000
7.05E+11,,Shore Road Car Park,,,,,E0705002,623536,843934,54.3435535,-7.6380347,BCT,CUS,OTH,N,,705,active,2013-10-24T00:00:00.000,2021-06-17T16:11:27.000
7.05E+11,,Derrylin,Derrylin,Doire Loinn,Doire Loinn,,E0705001,627672,827980,54.1999948,-7.5759023,BCT,CUS,OTH,N,,705,active,2013-10-24T00:00:00.000,2021-06-17T16:15:28.000
7.05E+11,,Derrylin,Derrylin,Doire Loinn,Doire Loinn,,E0705001,627663,827973,54.1999324,-7.5760409,BCT,CUS,OTH,N,,705,active,2013-10-24T00:00:00.000,2021-06-17T16:15:35.000
7050B5596101,559611,Sligo Retail Park,Sligo Retail Park,PM na Shligigh,PM na Shligigh,,E0705002,608449,838723,54.2972033,-7.8702072,BCT,MKD,OTH,N,,705,active,1969-12-31T00:00:00.000,2021-06-17T16:17:51.000
7050B141541,141541,Belleek,Belleek,Béal Leice,Béal Leice,,E0705003,593875,858637,54.4761706,-8.094502,BCT,MKD,OTH,N,,705,active,2000-01-01T00:00:00.000,2021-06-17T16:26:41.000
7050B600271,600271,Lisnarick,Lisnarick,Lisnarick,Lisnarick,,E0705002,619509,858715,54.4765336,-7.6989946,BCT,MKD,OTH,N,,705,active,2015-05-01T00:00:00.000,2021-06-21T11:27:56.000
7050B600281,600281,Lisnarick,Lisnarick,Lisnarick,Lisnarick,,E0705002,619509,858702,54.4764168,-7.6989955,BCT,MKD,OTH,N,,705,active,2016-04-11T00:00:00.000,2021-06-21T11:28:03.000
7050B6310001,631001,Belcoo,Belcoo,Béal Cú,Béal Cú,Sligo Road,E0705002,608469,838729,54.297258,-7.869896,BCT,MKD,OTH,NE,,705,active,2000-01-01T00:00:00.000,2023-10-16T10:21:58.766
7050B600291,600291,Kesh,Kesh,An Cheis,An Cheis,,E0705002,617953,863835,54.5225947,-7.7226906,BCT,MKD,OTH,N,,705,active,2013-10-24T00:00:00.000,2021-06-21T10:45:59.000
7050B600311,600311,Kesh,Kesh,An Cheis,An Cheis,,E0705002,617967,863828,54.5225313,-7.7224748,BCT,MKD,OTH,N,,705,active,2013-10-24T00:00:00.000,2021-06-21T10:46:07.000
7060000001,,Omagh,Omagh,An Ómaigh,An Ómaigh,,E0706002,643714,873816,54.6107018,-7.3233138,BCT,MKD,OTH,N,,706,active,1969-12-31T00:00:00.000,2020-09-24T14:49:59.000
7060000002,,ASDA,,,,,E0706006,634073,898307,54.831483,-7.469682,BCT,MKD,OTH,N,,706,active,1969-12-31T00:00:00.000,2022-09-19T16:35:52.000
7060B157111,157111,Newtownstewart,Newtownstewart,An Baile Nua,An Baile Nua,,E0706004,640395,886161,54.7218905,-7.3729819,BCT,MKD,OTH,N,,706,active,1969-12-31T00:00:00.000,2021-06-18T17:47:50.000
7060B1581401,158141,Sion Mills,Sion Mills,Muileann an tSiáin,Muileann an tSiáin,,E0706005,633940,893219,54.7857794,-7.4723484,BCT,MKD,OTH,N,,706,active,1969-12-31T00:00:00.000,2021-06-01T15:18:02.000
7060B152481,152481,Sion Mills,Sion Mills,Muileann an tSiáin,Muileann an tSiáin,,E0706005,633987,893056,54.7843117,-7.4716368,BCT,MKD,OTH,N,,706,active,1969-12-31T00:00:00.000,2021-06-18T17:51:14.000
7060B1581001,158101,Newtownstewart,Newtownstewart,An Baile Nua,An Baile Nua,,E0706004,640393,886148,54.7217739,-7.3730147,BCT,MKD,OTH,N,,706,active,1969-12-31T00:00:00.000,2021-06-01T15:21:31.000
7060B1581402,158142,Sion Mills,Sion Mills,Muileann an tSiáin,Muileann an tSiáin,,E0706005,633940,893219,54.7857794,-7.4723484,BCT,MKD,OTH,N,,706,active,1969-12-31T00:00:00.000,2021-06-01T15:20:42.000
7060B1581002,158102,Newtownstewart,Newtownstewart,An Baile Nua,An Baile Nua,,E0706004,640393,886148,54.7217739,-7.3730147,BCT,MKD,OTH,N,,706,active,1969-12-31T00:00:00.000,2021-06-01T15:15:29.000
7.06E+11,,Dungannon,Dungannon,Dún Geanainn,Dún Geanainn,,E0706001,679402,862088,54.5010016,-6.774142,BCT,MKD,OTH,N,,706,active,2000-01-01T00:00:00.000,2021-06-21T09:09:54.000
7.06E+11,,Dungannon,Dungannon,Dún Geanainn,Dún Geanainn,,E0706001,679402,862088,54.5010016,-6.774142,BCT,CUS,OTH,N,,706,active,2000-01-01T00:00:00.000,2021-06-21T09:10:03.000
7.06E+11,,Ballygawley,Ballygawley,Baile Uí Dhálaigh,Baile Uí Dhálaigh,Tullybryan Road,E0706001,662646,856857,54.456349,-7.033901,BCT,CUS,OTH,N,,706,active,2000-01-01T00:00:00.000,2023-04-27T16:10:17.130
7.06E+11,,Canal Street,Canal Street,Sráid na Canálach,Sráid na Canálach,,E0706006,634455,897894,54.8277461,-7.4637864,BCT,MKD,OTH,N,,706,active,2000-01-01T00:00:00.000,2021-06-21T09:14:42.000
706000006,,Toome,Toome,Tuaim,Tuaim,,E0706001,699056,891331,54.7601994,-6.4609326,BCT,CUS,OTH,N,,706,active,2020-12-02T00:00:00.000,2021-06-28T12:35:48.000
7.06E+11,,Ulsterbus Depot,Ulsterbus Depot,Busáras Ulsterbus,Busáras Ulsterbus,,E0706002,645199,872822,54.6016407,-7.3004812,BCT,MKD,OTH,N,,706,active,1969-12-31T00:00:00.000,2021-06-21T09:17:07.000
7.06E+11,,Bradley Way,Bradley Way,Bealach Bradley,Bealach Bradley,,E0706006,634051,897753,54.8265069,-7.47009,BCT,MKD,OTH,N,,706,active,1969-12-31T00:00:00.000,2021-06-21T09:15:22.000
7060B156031,156031,Ballygawley,Ballygawley,Baile Uí Dhálaigh,Baile Uí Dhálaigh,Tullybryan Road,E0706001,662646,856857,54.456349,-7.033901,BCT,CUS,OTH,N,,706,active,2000-01-01T00:00:00.000,2023-04-28T14:56:51.500
7060B158181,158181,Canal Street,Canal Street,Sráid na Canálach,Sráid na Canálach,,E0706006,634455,897894,54.8277461,-7.4637864,BCT,MKD,OTH,N,,706,active,2000-01-01T00:00:00.000,2022-01-04T15:18:01.000
7060B158031,158031,Ulsterbus Depot,Ulsterbus Depot,Busáras Ulsterbus,Busáras Ulsterbus,,E0706002,645117,872788,54.601343,-7.30175,BCT,MKD,OTH,N,,706,active,1969-12-31T00:00:00.000,2023-10-16T15:21:12.631
7060B158121,158121,Bradley Way,Bradley Way,Bealach Bradley,Bealach Bradley,,E0706006,634051,897753,54.8265069,-7.47009,BCT,MKD,OTH,N,,706,active,1969-12-31T00:00:00.000,2022-01-04T15:19:31.000
706000002,,Beltony Road,,,,,E0706002,643602,874079,54.6130744,-7.3250083,BCT,MKD,OTH,N,,706,active,2022-09-19T00:00:00.000,2022-09-19T16:10:57.000
706000003,,Beltony Road,,,,,E0706002,643593,874074,54.6130303,-7.3251484,BCT,MKD,OTH,N,,706,active,2022-09-19T00:00:00.000,2022-09-19T16:11:31.000
8210B5981201,598121,Carlow IT,Carlow IT,IT Cheatharlach,IT Cheatharlach,,E0821025,671692,675986,52.8300544,-6.9361212,BCT,MKD,OTH,NE,821G000002,821,active,2000-01-01T00:00:00.000,2020-10-23T13:53:05.000
8210B136211,136211,Rathvilly,Rathvilly,Ráth Bhile,Ráth Bhile,,E0821012,687800,681871,52.8805507,-6.6955619,BCT,CUS,OTH,NE,821G000007,821,active,1969-12-31T00:00:00.000,2021-03-01T16:43:46.000
821000011,,Barrack Street,,,,,E0821025,672404,676590,52.835387,-6.925423,BCT,CUS,OTH,SW,821G000009,821,active,1969-12-31T00:00:00.000,2022-08-31T16:16:51.000
8210B3355702,335572,Carlow Coach Park,Carlow Coach Park,Clós Cóistí Cheatharlach,Clós Cóistí Cheath,,E0821025,672303,676404,52.833729,-6.9269633,BCT,MKD,OTH,SW,821G000010,821,active,2000-01-01T00:00:00.000,2020-10-23T13:55:26.000
8210B3355701,335571,Hanover Bus Park,Hanover Bus Park,Páirc Bus Hanover,Páirc Bus Hanover,,E0821025,672304,676405,52.833738,-6.926948,BCT,MKD,OTH,SW,821G000010,821,active,2000-01-01T00:00:00.000,2023-01-17T13:18:22.000
8210PB000017,,Carlow Coach Park,Carlow Coach Park,Clós Cóistí Cheatharlach,Clós Cóistí Cheath,,E0821025,672310,676393,52.8336292,-6.9268619,BCT,CUS,OTH,NW,821G000010,821,active,2000-01-01T00:00:00.000,2020-10-23T13:56:50.000
8210B1360701,136071,Leighlinbridge Cross,Leighlinbridge,Crois Leithghlinn Droichid,Leithghlinn Droichid,,E0821123,668405,665420,52.7355314,-6.9870976,BCT,CUS,OTH,N,821G000015,821,active,1969-12-31T00:00:00.000,2023-05-26T15:21:03.294
8210PB000012,,Borris,Borris,An Bhuiríos,An Bhuiríos,,E0821024,672892,650424,52.6001859,-6.9239846,BCT,CUS,OTH,SE,821G000016,821,active,1969-12-31T00:00:00.000,2020-10-23T13:58:39.000
8210B3390801,,Seskin Road,Seskin Road,Bóthar an tSeiscinn,Bóthar an tSeiscinn,R448,E0821006,668495,665793,52.738872,-6.9856873,BCT,CUS,OTH,S,821G000018,821,active,1969-12-31T00:00:00.000,2020-10-23T13:59:08.000
8210B3394301,339431,Royal Oak Road,Royal Oak Road,Bóthar na Darach Ríoga,Br na Darach Ríoga,,E0821029,668651,661942,52.704245,-6.984179,BCT,CUS,OTH,S,821G000019,821,active,2000-01-01T00:00:00.000,2023-10-17T09:42:47.060
8210PB000008,,Carlow Royal Oak,Carlow Royal Oak,An Dair Ríoga Cheatharlach,An Dair Ríoga,,E0821029,668596,661749,52.7025179,-6.985036,BCT,CUS,OTH,SE,821G000019,821,active,2000-01-01T00:00:00.000,2020-10-23T14:01:17.000
8210B3511401,351141,Rathvilly,Rathvilly,Ráth Bhile,Ráth Bhile,N81,E0821012,687821,681879,52.8806192,-6.6952479,BCT,CUS,OTH,SW,821G000020,821,active,1969-12-31T00:00:00.000,2020-10-23T14:01:57.000
8210B3511402,351142,Rathvilly,Rathvilly,Ráth Bhile,Ráth Bhile,,E0821012,687816,681881,52.880638,-6.695327,BCT,MKD,OTH,NE,821G000020,821,active,1969-12-31T00:00:00.000,2023-08-25T11:44:24.301
8210B1340202,134022,Hacketstown,Hacketstown,Baile Haicéid,Baile Haicéid,Main Street,E0821003,697058,680355,52.8653398,-6.5585135,BCT,CUS,OTH,NW,821G000021,821,active,1969-12-31T00:00:00.000,2020-10-23T15:33:26.000
8210B1340201,134021,Hacketstown,Hacketstown,Baile Haicéid,Baile Haicéid,Main Street,E0821003,697066,680342,52.8652215,-6.5583986,BCT,CUS,OTH,NW,821G000021,821,active,1969-12-31T00:00:00.000,2020-10-23T15:34:13.000
8210B3555602,355562,The Square Tullow,The Square Tullow,Cearnóg An Tulach,Cearnóg An Tulach,Bridge Street,E0821014,685219,673187,52.8029355,-6.7361651,BCT,CUS,OTH,SW,821G000023,821,active,2000-01-01T00:00:00.000,2020-10-23T15:34:51.000
8210B3555604,355564,Tullow,Tullow,An Tulaigh,An Tulaigh,Bridge Street,E0821014,685225,673208,52.8031233,-6.7360707,BCT,MKD,OTH,NE,821G000023,821,active,2000-01-01T00:00:00.000,2020-10-23T15:35:23.000
8210B3511801,351181,Kildavin,Kildavin,Cill Damháin,Cill Damháin,,E0821017,688885,660007,52.683916,-6.685386,BCT,CUS,OTH,SE,821G000024,821,active,1969-12-31T00:00:00.000,2023-04-28T15:52:51.473
821000007,,Leighlinbridge,Leighlinbridge,Leithghl an Droichid,Leithghl an Droichid,,E0821006,669165,665560,52.7366929,-6.9758164,BCT,CUS,OTH,S,821G000028,821,active,1969-12-31T00:00:00.000,2021-03-16T11:28:53.000
821000008,,Leighlinbridge,Leighlinbridge,Leithghlinn an Droichid,Leithghl an Droichid,,E0821006,669153,665561,52.7367034,-6.9759938,BCT,CUS,OTH,N,821G000028,821,active,1969-12-31T00:00:00.000,2021-03-16T11:29:10.000
821000009,,Royal Oak Road,Royal Oak Road,Bóthar na Darach Ríoga,Br na Drch Ríoga,,E0821009,669715,661478,52.6999397,-6.9685393,BCT,CUS,OTH,W,821G000029,821,active,1969-12-31T00:00:00.000,2020-10-23T15:41:34.000
821000010,,Royal Oak Road,Royal Oak Road,Bóthar na Darach Ríoga,Br na Drch Ríoga,,E0821009,669711,661497,52.700111,-6.9685944,BCT,CUS,OTH,E,821G000029,821,active,1969-12-31T00:00:00.000,2020-10-23T15:43:38.000
821000012,,Bagenalstown,Bagenalstown,Muine Bheag,Muine Bheag,,E0821009,670360,661659,52.7014829,-6.9589592,BCT,CUS,OTH,S,821G000030,821,active,1969-12-31T00:00:00.000,2020-10-23T15:45:08.000
821000013,,Bagenalstown,Bagenalstown,Muine Bheag,Muine Bheag,,E0821009,670339,661659,52.7014856,-6.9592699,BCT,CUS,OTH,N,821G000030,821,active,1969-12-31T00:00:00.000,2020-10-23T15:46:21.000
821000016,,Dublin Road,Dublin Road,Bóthar BÁC,Bóthar BÁC,,E0821014,685783,673899,52.8092439,-6.7276162,BCT,CUS,OTH,SW,821G000031,821,active,1969-12-31T00:00:00.000,2021-03-16T11:31:06.000
821000018,,St Patrick's Park,St Patrick's Park,Páirc Phádraig,Páirc Phádraig,,E0821014,684671,673338,52.804379,-6.744251,BCT,CUS,OTH,W,821G000032,821,active,1969-12-31T00:00:00.000,2020-10-23T15:47:31.000
821000022,,Kernanstown,Kernanstown,Baile Mhic Thiarnáin,Baile Mhic Thiarnáin,,E0821022,675633,675120,52.8217341,-6.8778508,BCT,CUS,OTH,W,821G000034,821,active,1969-12-31T00:00:00.000,2020-10-23T15:48:37.000
8210B351711,351711,Ballon,Ballon,Balana,Balana,,E0821007,683030,666166,52.740188,-6.7703998,BCT,MKD,OTH,N,821G010006,821,active,2015-04-23T00:00:00.000,2022-03-02T10:09:57.000
8210B351721,351721,Ballon,Ballon,Balana,Balana,,E0821007,683042,666155,52.7400873,-6.7702249,BCT,MKD,OTH,S,821G010006,821,active,2015-04-23T00:00:00.000,2022-03-02T10:09:24.000
8210000199,,Carlow College,Carlow College,Coláiste Cheatharlach,Coláiste Cheatharlach,,E0821025,672279,676946,52.8386027,-6.9271994,BCT,CUS,OTH,N,,821,active,2019-04-09T00:00:00.000,2020-10-23T15:54:38.000
8210B154001,154001,Tullow North,Tullow North,An Tulach Thuaidh,An Tulach Thuaidh,,E0821014,685463,673383,52.8046581,-6.7324963,BCT,CUS,OTH,N,,821,active,2019-10-08T00:00:00.000,2023-09-26T10:41:54.910
8210B153991,153991,Tullow North,Tullow North,An Tulach Thuaidh,An Tulach Thuaidh,,E0821014,685462,673401,52.80482,-6.7325064,BCT,MKD,OTH,NE,,821,active,2019-10-08T00:00:00.000,2023-09-26T10:40:04.516
821000001,,Iona Drive,Iona Drive,Céide Í,Céide Í,,E0821025,672822,677083,52.839761,-6.919111,BCT,MKD,OTH,N,,821,active,2015-12-01T00:00:00.000,2020-11-19T11:01:10.000
821000002,,Iona Drive,Iona Drive,Céide Í,Céide Í,,E0821025,672829,677070,52.839643,-6.91901,BCT,MKD,OTH,S,,821,active,2015-12-01T00:00:00.000,2020-11-19T11:02:11.000
8210B136231,136231,Hacketstown,Hacketstown,Baile Haicéid,Baile Haicéid,,E0821003,697062,680359,52.865375,-6.5584529,BCT,CUS,OTH,SE,,821,active,1969-12-31T00:00:00.000,2020-10-23T16:01:17.000
8210B136061,136061,IT Carlow,IT Carlow,IT Cheatharlach,IT Cheatharlach,,E0821025,671702,675978,52.8299812,-6.9359746,BCT,MKD,OTH,S,,821,active,2000-01-01T00:00:00.000,2020-10-23T15:55:36.000
8210LL10438,10438,Rathtoe,Rathtoe,Ráth Tó,Ráth Tó,,E0821016,680904,671447,52.7879644,-6.800573,BCT,MKD,OTH,SW,821G000001,821,active,2020-12-01T00:00:00.000,2021-03-16T11:24:20.000
8210TR000006,,Tullys Travel,,,,Tullow Street,E0821025,672060,676692,52.8363496,-6.9305054,TXR,,,,821G000003,821,active,1969-12-31T00:00:00.000,1969-12-31T23:00:00.000
8210TR000008,,Heatons,,,,X,E0821025,672541,676488,52.8344519,-6.9234132,TXR,,,,821G000004,821,active,1969-12-31T00:00:00.000,1969-12-31T23:00:00.000
8210TR000007,,Shaws Department Store,,,,Tullow Street,E0821025,672011,676703,52.8364549,-6.9312301,TXR,,,,821G000005,821,active,1969-12-31T00:00:00.000,1969-12-31T23:00:00.000
8210LL10002,10002,Kildavin,Kildavin,Cill Damháin,Cill Damháin,,E0821017,688901,659948,52.6833829,-6.6851607,BCT,CUS,OTH,N,821G000006,821,active,2015-04-23T00:00:00.000,2022-03-02T10:13:48.000
8210LL10003,10003,Kildavin,Kildavin,Cill Damháin,Cill Damháin,,E0821017,688913,659949,52.6833899,-6.684983,BCT,MKD,OTH,S,821G000006,821,active,2015-04-23T00:00:00.000,2020-10-23T16:00:40.000
8210TR000001,,Fdc Accountants,,,,The Square,E0821014,685195,673166,52.8027506,-6.7365265,TXR,,,,821G000008,821,active,1969-12-31T00:00:00.000,1969-12-31T23:00:00.000
8210TR000005,,Brooks Restaurant,,,,Tullow Street,E0821025,672103,676683,52.8362629,-6.9298693,TXR,,,,821G000011,821,active,1969-12-31T00:00:00.000,1969-12-31T23:00:00.000
8210TR000004,,Bruce Betting,,,,Potato Market,E0821025,672142,676650,52.8359612,-6.9292979,TXR,,,,821G000012,821,active,1969-12-31T00:00:00.000,1969-12-31T23:00:00.000
8210TR000003,,Ulster Bank,,,,Kennedy Avenue,E0821025,672227,676504,52.8346378,-6.9280689,TXR,,,,821G000013,821,active,1969-12-31T00:00:00.000,1969-12-31T23:00:00.000
8210TR000002,,Carlow Train Station,,,,St Josephs Road,E0821025,672559,677188,52.8407397,-6.9229905,TXR,,,,821G000014,821,active,1969-12-31T00:00:00.000,1969-12-31T23:00:00.000
8210B3394302,339432,Royal Oak,Royal Oak,An Dair Ríoga,An Dair Ríoga,,E0821029,668566,661802,52.702998,-6.9854687,BCT,MKD,OTH,N,821G000019,821,active,2000-01-01T00:00:00.000,2017-03-01T15:35:22.000
8210B3555601,355561,Tullow,Tullow,An Tulach,An Tulach,Bridge Street,E0821014,685219,673187,52.8029355,-6.7361651,BCT,CUS,OTH,SW,821G000023,821,active,2000-01-01T00:00:00.000,2020-11-26T11:56:53.000
8210B3555603,355563,Tullow,Tullow,An Tulaigh,An Tulaigh,Bridge Street,E0821014,685218,673187,52.8029357,-6.73618,BCT,MKD,OTH,SW,821G000023,821,active,2000-01-01T00:00:00.000,2015-06-23T12:50:29.000
8210B1360801,136081,Royal Oak,Royal Oak,An Dair Ríoga,An Dair Ríoga,,E0821562,668566,661802,52.702998,-6.9854687,BCT,CUS,OTH,N,,821,active,1969-12-31T00:00:00.000,2021-03-16T11:31:56.000
8210IR0002,,Carlow,,Ceatharlach,,,E0828294,672584,677194,52.840788,-6.922622,RLY,,,,,821,active,1969-12-31T00:00:00.000,2022-05-23T16:50:35.848
8210IR0001,,Muine Bheag (Bagenalstown),Bagenalstown,Muine Bheag,,,E0821009,670790,661409,52.69918,-6.952653,RLY,,,,,821,active,1969-12-31T00:00:00.000,2022-05-23T16:49:12.115
821000004,11345,Tullow South,Tullow South,An Tulach Theas,An Tulach Theas,,E0821014,685016,672956,52.8008919,-6.739235,BCT,CUS,OTH,N,,821,active,2020-12-01T00:00:00.000,2023-09-19T12:06:50.319
821000003,11344,Tullow South,Tullow South,An Tulach Theas,An Tulach Theas,,E0821014,684989,672966,52.800986,-6.7396327,BCT,CUS,OTH,N,,821,active,2020-12-01T00:00:00.000,2023-09-19T12:03:53.233
8210LL10874,10874,Tinryland Junction,,,,,E0821381,674896,673187,52.8044669,-6.8892262,BCT,CUS,OTH,N,,821,active,2020-12-14T00:00:00.000,2021-06-01T13:34:13.000
821000005,,Tyndall College,,,,,E0821463,671115,674763,52.8191407,-6.9449483,BCT,CUS,OTH,N,,821,active,2020-07-15T00:00:00.000,2021-06-02T09:06:43.000
821000006,,Tyndall College,,,,,E0821463,671097,674771,52.819215,-6.9452135,BCT,CUS,OTH,N,,821,active,2020-07-15T00:00:00.000,2021-06-02T15:07:52.000
8210LL10440,10440,Flynns Garage,Flynns Garage,,,,E0821014,685473,673391,52.8047284,-6.7323459,BCT,MKD,OTH,N,,821,active,2019-11-01T00:00:00.000,2021-06-03T14:59:56.000
821000014,,Carlow Institute of Further Education,Carlow Institute,,,,E0821025,671961,676274,52.8326066,-6.9320666,BCT,CUS,OTH,N,,821,active,2021-08-09T00:00:00.000,2023-05-05T15:28:57.161
821000015,,Carlow Institute of Further Education,Carlow Institute,,,,E0821025,671954,676272,52.8325895,-6.9321709,BCT,CUS,OTH,N,,821,active,2021-08-09T00:00:00.000,2023-05-05T15:29:54.484
8210B339081,339081,Seskin Road,Seskin Road,Bóthar an tSeiscinn,Bóthar an tSeiscinn,R448,E0821006,668495,665793,52.738872,-6.9856873,BCT,CUS,OTH,S,821G000018,821,active,1969-12-31T00:00:00.000,2021-11-30T14:10:48.000
8210B335581,335581,Green Lane,Green Lane,An Lána Glas,An Lána Glas,,E0821025,672549,676740,52.8367153,-6.9232385,BCT,MKD,OTH,N,,821,active,2022-08-31T00:00:00.000,2022-08-31T17:05:49.000
821000017,,SETU Carlow Campus,,,,,E0821556,671725,675584,52.8264376,-6.9357198,BCT,CUS,OTH,N,,821,active,2022-08-08T00:00:00.000,2022-08-08T14:57:11.000
8210B335561,335561,Barrck Street,Barrck Street,Sráid na Beairice,Sráid na Beairice,,E0821025,672404,676590,52.8353869,-6.9254235,BCT,MKD,OTH,N,,821,active,2022-08-31T00:00:00.000,2022-08-31T17:06:10.000
821000019,,Carlow Train Station,Carlow Station,Stáisiún Cheatharlach,Stáisiún Cheatharlach,,E0821025,672567,677181,52.8406757,-6.9228734,BCT,CUS,OTH,N,,821,active,2022-09-05T00:00:00.000,2023-06-23T16:08:57.475
821000020,,Carlow Train Station,Carlow Station,Stáisiún Cheatharlach,Stáisiún Cheatharlach,,E0821025,672548,677207,52.8409119,-6.9231496,BCT,CUS,OTH,N,,821,active,2022-09-05T00:00:00.000,2023-06-23T16:07:59.893
821000023,,Royal Oak Road,,,,,E0821009,670304,661570,52.7006904,-6.9598067,BCT,CUS,OTH,N,,821,active,2022-10-26T00:00:00.000,2022-10-26T16:38:29.000
8210CO11091,201001,Tyndall College,Tyndall/CIFET,Tyndall/IBOC,Tyndall/IBOC,,E0821463,671104,674768,52.8191871,-6.9451104,BCT,MKD,OTH,N,,821,active,2023-01-03T00:00:00.000,2023-05-12T12:45:01.579
8210CO11097,11097,Hanover Bus Park,Hanover Bus Park,Páirc Bus Hanover,Páirc Bus Hanover,,E0821496,672309,676398,52.8336743,-6.9268756,BCT,CUS,OTH,N,,821,active,2023-01-03T00:00:00.000,2023-01-03T12:16:05.000
8210CO11106,201111,MSD Carlow,MSD Carlow,MSD Ceatharlach,MSD Ceatharlach,,E0821502,675121,678731,52.8542541,-6.8846146,BCT,MKD,OTH,N,,821,active,2023-01-03T00:00:00.000,2023-05-12T12:29:03.478
8210CO11114,111141,Green Lane,Green Lane,An Lána Glas,An Lána Glass,,E0821543,672971,677310,52.8417804,-6.916849,BCT,MKD,OTH,N,,821,active,2023-01-03T00:00:00.000,2023-05-12T12:21:00.154
8210CO11115,111151,Fire Station,Fire Station,Stáisiún Dóiteáin,Stáisiún Dóiteáin,,E0821025,672583,676770,52.8369803,-6.9227273,BCT,MKD,OTH,N,,821,active,2023-01-03T00:00:00.000,2023-05-12T12:20:08.319
8210CO11123,201011,Tyndall College,Tyndall College,Coláiste Tyndall,Coláiste Tyndall,,E0821463,671117,674767,52.8191764,-6.9449177,BCT,MKD,OTH,N,,821,active,2023-01-03T00:00:00.000,2023-05-12T12:45:36.147
8210CO11141,111411,Business Park,Business Park,Páirc Ghnó,Páirc Ghnó,,E0821586,674335,674975,52.8206116,-6.897138,BCT,MKD,OTH,N,,821,active,2023-01-03T00:00:00.000,2023-05-12T12:11:50.877
8210CO11146,113931,Ashgrove,Ashgrove,Garrán na Fuinseoige,Garrán na Fuinseoige,,E0821499,673289,676075,52.8306394,-6.912407,BCT,MKD,OTH,N,,821,active,2023-01-03T00:00:00.000,2023-05-12T12:00:58.550
8210CO11147,113941,Idrone Park,Idrone Park,Páirc Ó Dróna,Páirc Ó Dróna,,E0821041,673218,676344,52.8330663,-6.9134001,BCT,MKD,OTH,N,,821,active,2023-01-03T00:00:00.000,2023-05-12T12:24:06.897
8210CO11159,202001,Barrow Valley,Barrow Valley,Bhruach an Bhearú,Bhruach an Bhearú,,E0821316,671183,677680,52.8453444,-6.9433037,BCT,MKD,OTH,N,,821,active,2023-01-03T00:00:00.000,2023-05-12T12:05:57.023
8210CO11092,11092,South East T.U.,South East T.U.,O.T. an Oirdheiscirt,O.T. an Oirdheiscirt,,E0821556,671627,675518,52.8258575,-6.9371882,BCT,MKD,OTH,N,,821,active,2023-01-04T00:00:00.000,2023-01-04T09:12:42.000
8210CO11093,110931,Bourlum Wood,Bourlum Wood,Coill Bourlum,Coill Bourlum,,E0821556,671727,675247,52.823409,-6.9357642,BCT,MKD,OTH,N,,821,active,2023-01-04T00:00:00.000,2023-05-12T12:09:07.002
8210CO11094,110941,Green Road,Green Road,Bóthar Glas,Bóthar Glas,,E0821556,671836,675481,52.8254972,-6.9340958,BCT,MKD,OTH,N,,821,active,2023-01-04T00:00:00.000,2023-05-12T12:21:32.611
8210CO11095,110951,New Street,New Street,An tSráid Nua,An tSráid Nua,,E0821496,672041,675955,52.8297293,-6.93095,BCT,MKD,OTH,N,,821,active,2023-01-04T00:00:00.000,2023-05-12T12:29:45.479
8210CO11096,110961,Hanover Road,Hanover Road,Bóthar Hanover,Bóthar Hanover,,E0821496,672160,676143,52.8314028,-6.9291429,BCT,MKD,OTH,N,,821,active,2023-01-04T00:00:00.000,2023-05-12T12:22:34.941
8210CO11098,110981,Fire Station,Fire Station,Stáisiún Dóiteáin,Stáisiún Dóiteáin,,E0821025,672553,676757,52.8368675,-6.9231754,BCT,MKD,OTH,N,,821,active,2023-01-04T00:00:00.000,2023-05-12T12:19:24.054
8210CO11099,110991,Green Lane,Green Lane,An Lána Glas,An Lána Glas,,E0821543,672921,677249,52.841239,-6.9176047,BCT,MKD,OTH,N,,821,active,2023-01-04T00:00:00.000,2023-05-12T12:20:34.245
8210CO11100,111001,Deerpark,Deerpark,Páirc na bhFianna,Páirc na bhFianna,,E0821501,673425,677678,52.8450256,-6.9100286,BCT,MKD,OTH,N,,821,active,2023-01-04T00:00:00.000,2023-05-12T12:16:30.591
8210CO11101,111011,O'Brien Road,O'Brien Road,Bóthar Uí Bhriain,Bóthar Uí Bhriain,,E0821543,673501,677168,52.8404324,-6.9090155,BCT,MKD,OTH,N,,821,active,2023-01-04T00:00:00.000,2023-05-12T12:30:38.328
8210CO11102,201041,Sandhills,Sandhills,Cnoc an Ghainimh,Cnoc an Ghainimh,,E0821501,673794,677080,52.8396015,-6.9046872,BCT,MKD,OTH,N,,821,active,2023-01-04T00:00:00.000,2023-05-12T12:34:51.836
8210CO11103,201051,Burrindale,Burrindale,Burrindale,Burrindale,,E0821501,673952,677318,52.8417186,-6.9022886,BCT,MKD,OTH,N,,821,active,2023-01-05T00:00:00.000,2023-05-12T12:10:30.594
8210CO11104,111041,Beechwood Park,Beechwood Park,Páirc Choill na Feá,Páirc Choill na Feá,,E0821500,674147,677656,52.844729,-6.8993178,BCT,MKD,OTH,N,,821,active,2023-01-05T00:00:00.000,2023-06-01T10:39:14.770
8210CO11105,201061,Pollerton Manor,Pollerton Manor,Máinéar Phollerton,Máinéar Phollerton,,E0821500,674389,677885,52.8467535,-6.895674,BCT,MKD,OTH,N,,821,active,2023-01-05T00:00:00.000,2023-05-12T12:31:39.783
8210CO11108,111231,Pollerton Manor,Pollerton Manor,Máinéar Phollerton,Máinéar Phollerton,,E0821500,674417,677880,52.8467047,-6.8952595,BCT,MKD,OTH,N,,821,active,2023-01-05T00:00:00.000,2023-05-12T12:32:10.156
8210CO11109,111091,Beechwood Park,Beechwood Park,Páirc Choill na Feá,Páirc Choill na Feá,,E0821500,674169,677678,52.8449237,-6.8989863,BCT,MKD,OTH,N,,821,active,2023-01-05T00:00:00.000,2023-07-19T14:42:49.999
8210CO11110,111101,Burrindale,Burrindale,Burrindale,Burrindale,,E0821501,673971,677344,52.8419496,-6.9020007,BCT,MKD,OTH,N,,821,active,2023-01-05T00:00:00.000,2023-05-12T12:11:13.885
8210CO11111,111241,Sandhills,Sandhills,Cnoc an Ghainimh,Cnoc an Ghainimh,,E0821041,673610,677056,52.839411,-6.9074232,BCT,MKD,OTH,N,,821,active,2023-01-05T00:00:00.000,2023-05-12T12:35:28.298
8210CO11112,111121,O'Brien Road,O'Brien Road,Bóthar Uí Bhriain,Bóthar Uí Bhriain,,E0821543,673483,677218,52.8408841,-6.9092713,BCT,MKD,OTH,N,,821,active,2023-01-05T00:00:00.000,2023-05-12T12:31:08.823
8210CO11113,111131,Deerpark,Deerpark,Páirc na bhFianna,Páirc na bhFianna,,E0821501,673415,677651,52.8447843,-6.9101831,BCT,MKD,OTH,N,,821,active,2023-01-05T00:00:00.000,2023-05-12T12:17:12.257
8210CO11117,111171,Hanover Road,Hanover Road,Bóthar Hanover,Bóthar Hanover,,E0821496,672192,676194,52.8318568,-6.9286568,BCT,MKD,OTH,N,,821,active,2023-01-05T00:00:00.000,2023-05-12T12:23:06.102
8210CO11118,111181,New Street,New Street,An tSráid Nua,An tSráid Nua,,E0821496,672002,675877,52.8290336,-6.9315458,BCT,MKD,OTH,N,,821,active,2023-01-05T00:00:00.000,2023-05-12T12:30:10.205
8210CO11119,111191,Green Road,Green Road,Bóthar Glas,Bóthar Glas,,E0821556,671850,675508,52.825738,-6.9338821,BCT,MKD,OTH,N,,821,active,2023-01-05T00:00:00.000,2023-05-12T12:22:06.620
8210CO11120,111201,Bourlum Wood,Bourlum Wood,Coill Bourlum,Coill Bourlum,,E0821556,671705,675202,52.8230075,-6.9361004,BCT,MKD,OTH,N,,821,active,2023-01-06T00:00:00.000,2023-05-12T12:09:49.905
8210CO11121,111211,South East T.U.,South East T.U.,O.T. an Oirdheiscirt,O.T. an Oirdheiscirt,,E0821556,671615,675530,52.8259669,-6.9373636,BCT,MKD,OTH,N,,821,active,2023-01-06T00:00:00.000,2023-05-12T12:37:39.872
8210CO11122,111221,Southern Gardens,Southern Gardens,Gáirdíní Theas,Gáirdíní Theas,,E0821556,671328,675148,52.8225723,-6.9417048,BCT,MKD,OTH,N,,821,active,2023-01-06T00:00:00.000,2023-05-12T12:38:12.150
8210CO11125,111251,Sleaty Street,Sleaty Street,Sráid Sléibhte,Sráid Sléibhte,,E0821316,671431,677534,52.8439996,-6.9396548,BCT,MKD,OTH,N,,821,active,2023-01-06T00:00:00.000,2023-05-12T12:36:11.349
8210CO11126,111261,Duggan Avenue,Duggan Avenue,Ascaill Uí Dhúgáin,Ascaill Uí Dhúgáin,,E0821316,671532,677145,52.8404906,-6.9382411,BCT,MKD,OTH,N,,821,active,2023-01-06T00:00:00.000,2023-05-12T12:18:05.305
8210CO11127,113911,Maryborough Street,Maryborough Street,Sráid Maryborough,Sráid Maryborough,,E0821315,671529,676766,52.8370853,-6.9383687,BCT,MKD,OTH,N,,821,active,2023-01-06T00:00:00.000,2023-05-12T12:27:31.442
8210CO11128,111281,Castle,Castle,Caisleán,Caisleán,,E0821315,671706,676717,52.8366214,-6.9357529,BCT,MKD,OTH,N,,821,active,2023-01-06T00:00:00.000,2023-05-12T12:12:30.329
8210CO11129,111291,Kennedy Avenue,Kennedy Avenue,Ascaill Uí Chinnéide,Ascaill Uí Chinnéide,,E0821025,671991,676614,52.8356579,-6.9315465,BCT,MKD,OTH,N,,821,active,2023-01-06T00:00:00.000,2023-05-12T12:24:47.941
8210CO11132,111321,Pollerton Road,Pollerton Road,Br Bhaile Pholaird,Br Bhaile Pholaird,,E0821543,672853,676758,52.836836,-6.9187235,BCT,MKD,OTH,N,,821,active,2023-01-06T00:00:00.000,2023-05-12T12:32:46.156
8210CO11133,111331,St Patrick's Avenue,St Patrick's Avenue,Ascaill Naomh Phádraig,Asc Naomh Phádraig,,E0821543,673143,676809,52.8372551,-6.9144087,BCT,MKD,OTH,N,,821,active,2023-01-06T00:00:00.000,2023-10-26T15:26:29.952
8210CO11134,111341,Laurence O'Toole's,Laurence O'Toole's,Labhrás Ó Tuathaill,Labhrás Ó Tuathaill,,E0821041,673346,676971,52.8386832,-6.91136,BCT,MKD,OTH,N,,821,active,2023-01-06T00:00:00.000,2023-05-12T12:26:11.659
8210CO11135,113921,Askea,Askea,Easca,Easca,,E0821041,673390,676604,52.8353793,-6.9107896,BCT,MKD,OTH,N,,821,active,2023-01-06T00:00:00.000,2023-05-12T12:01:48.214
8210CO11138,113951,Tullow Road,Tullow Road,Bóthar na Tulaí,Bóthar na Tulaí,,E0821640,673631,676172,52.8314645,-6.9073109,BCT,MKD,OTH,N,,821,active,2023-01-06T00:00:00.000,2023-05-12T12:43:27.298
8210CO11139,111391,The Orchards,The Orchards,Na hÚlloird,Na hÚlloird,,E0821640,673907,676012,52.829989,-6.9032521,BCT,MKD,OTH,N,,821,active,2023-01-06T00:00:00.000,2023-05-12T12:40:07.253
8210CO11140,113961,Wallsforge,Wallsforge,Ceárta De Bhál,Ceárta De Bhál,,E0821640,674147,675791,52.8279701,-6.8997415,BCT,MKD,OTH,N,,821,active,2023-01-06T00:00:00.000,2023-05-12T12:46:06.300
8210CO11143,111431,Wallsforge,Wallsforge,Ceárta De Bhál,Ceárta De Bhál,,E0821640,674164,675773,52.827806,-6.8994934,BCT,MKD,OTH,N,,821,active,2023-01-06T00:00:00.000,2023-05-12T12:46:45.221
8210CO11444,111421,The Orchards,The Orchards,Na hÚlloird,Na hÚlloird,,E0821640,673878,676028,52.8301367,-6.9036787,BCT,MKD,OTH,N,,821,active,2023-01-06T00:00:00.000,2023-05-12T12:42:50.547
8210CO11145,112031,Tullow Road,Tullow Road,Bóthar na Tulaí,Bóthar na Tulaí,,E0821640,673661,676142,52.8311908,-6.9068726,BCT,MKD,OTH,N,,821,active,2023-01-06T00:00:00.000,2023-05-12T12:44:24.717
8210CO11148,111461,Askea,Askea,Easca,Easca,,E0821041,673363,676590,52.8352572,-6.9111933,BCT,MKD,OTH,N,,821,active,2023-01-06T00:00:00.000,2023-05-12T12:05:16.990
8210CO11149,111601,Laurence O'Toole's,Laurence O'Toole's,Labhrás Ó Tuathaill,Labhrás Ó Tuathaill,,E0821041,673305,676923,52.8382575,-6.9119792,BCT,MKD,OTH,N,,821,active,2023-01-09T00:00:00.000,2023-07-11T12:21:25.539
8210CO11150,,St. Patrick's Ave,St. Patrick's Ave,Asc Naomh Phádraig,Asc Naomh Phádraig,,E0821543,673126,676793,52.8371136,-6.9146646,BCT,MKD,OTH,N,,821,active,2023-01-09T00:00:00.000,2023-05-26T11:00:55.632
8210CO11151,113131,Pollerton Road,Pollerton Road,Br Bhaile Pholaird,Br Bhaile Pholaird,,E0821025,672806,676742,52.8366986,-6.9194245,BCT,MKD,OTH,N,,821,active,2023-01-09T00:00:00.000,2023-05-15T10:11:42.309
8210CO11154,111821,Kennedy Avenue,Kennedy Avenue,Ascaill Uí Chinnéide,Ascaill Uí Chinnéide,,E0821025,671997,676588,52.8354234,-6.9314632,BCT,MKD,OTH,N,,821,active,2023-01-09T00:00:00.000,2023-05-12T12:25:38.239
8210CO11155,111861,Castle,Castle,Caisleán,Caisleán,,E0821315,671685,676720,52.8366512,-6.9360639,BCT,MKD,OTH,N,,821,active,2023-01-09T00:00:00.000,2023-05-12T12:13:14.248
8210CO11156,111871,Maryborough Street,Maryborough Street,Sráid Maryborough,Sráid Maryborough,,E0821315,671532,676853,52.8378667,-6.9383051,BCT,MKD,OTH,N,,821,active,2023-01-09T00:00:00.000,2023-05-12T12:28:12.206
8210CO11157,111881,Duggan Avenue,Duggan Avenue,Ascaill Uí Dhúgáin,Ascaill Uí Dhúgáin,,E0821316,671549,677075,52.8398593,-6.9380041,BCT,MKD,OTH,N,,821,active,2023-01-09T00:00:00.000,2023-05-12T12:18:47.237
8210CO11158,110921,Sleaty Street,Sleaty Street,Sráid Sléibhte,Sráid Sléibhte,Heather Hill Square,E0828294,671425,677534,52.844,-6.939744,BCT,MKD,OTH,N,,821,active,2023-01-09T00:00:00.000,2023-08-25T11:39:54.475
8210B111621,111621,St. Patrick's Avenue,St Patrick's Avenue,Ascaill Naomh Phádraig,Asc Naomh Phádraig,Pollerton Road,E0821543,673126,676794,52.8371239,-6.9146703,BCT,MKD,OTH,N,,821,active,2023-06-01T10:57:56.672,2023-10-02T14:37:05.773
8210B111891,111891,Sleaty Street,,Sráid Sléibhte,Sráid Sléibhte,Heather Hill Square,E0821316,671424,677550,52.8441478,-6.9397625,BCT,MKD,OTH,N,,821,active,2023-06-01T11:01:51.530,2023-06-01T11:03:15.320
8210B202101,202101,Wexford Road Business Park,Business Park,Páirc Ghnó Bhóthar Loch Garman,Páirc Ghnó,,E0821586,674335,674975,52.820615,-6.8971333,BCT,MKD,OTH,N,,821,active,2023-06-01T11:12:51.031,2023-08-04T12:47:03.153
8210LL10441,,Aldi Bagenalstown,,,,,E0821474,670566,661900,52.70362,-6.95586,BCT,MKD,OTH,N,,821,active,2023-08-30T11:44:22.363,2023-08-30T11:44:22.363
8210LL10442,,Petrol Station Bagenalstown,,,,Kilree Street,E0821474,670488,661527,52.70028,-6.9571,BCT,MKD,OTH,N,,821,active,2023-08-30T11:46:23.473,2023-08-30T11:46:23.473
8210LL10443,,Ballinkillen Cross,,,,,E0821060,670922,656441,52.654514,-6.951764,BCT,MKD,OTH,N,,821,active,2023-08-30T12:03:17.112,2023-08-30T15:06:07.642
8210LL10444,,Woodlawn Park,,,,,E0821024,672101,650801,52.60368,-6.93557,BCT,MKD,OTH,N,,821,active,2023-08-30T12:04:58.276,2023-08-30T12:04:58.276
8210LL10445,,Dalton Square,,,,,E0821024,672982,650355,52.599551,-6.922673,BCT,MKD,OTH,N,,821,active,2023-08-30T12:06:43.742,2023-08-30T12:06:43.742
8210LL10446,,Skeagh Cross,,,,,E0821237,673787,644991,52.55124,-6.91198,BCT,MKD,OTH,N,,821,active,2023-08-30T12:26:46.488,2023-08-30T12:26:46.488
8210LL10447,,Byrne’s Pub,,,,,E0821025,674269,639640,52.50309,-6.90608,BCT,MKD,OTH,N,,821,active,2023-08-30T12:36:10.532,2023-08-30T12:36:10.532
8210LL10448,,Old Post Office,,,,,E0821018,672687,638204,52.490401,-6.929692,BCT,MKD,OTH,N,,821,active,2023-08-30T12:37:55.695,2023-08-30T12:37:55.695
8210LL10449,,Drummon Church,,,,,E0821025,674608,636233,52.47243,-6.90185,BCT,MKD,OTH,N,,821,active,2023-08-30T12:39:51.702,2023-08-30T12:39:51.702
8210LL10450,,Skeagh Cross,,,,,E0821237,673781,645000,52.55132,-6.91207,BCT,MKD,OTH,N,,821,active,2023-08-30T13:23:57.763,2023-08-30T13:23:57.763
8210LL10451,,Petrol Station Bagenalstown,,,,Kilree Street,E0821009,670480,661520,52.70022,-6.9572096,BCT,MKD,OTH,N,,821,active,2023-08-30T13:56:50.096,2023-08-30T13:56:50.096
8210LL10452,,Aldi Bagenalstown,,,,,E0821009,670542,661858,52.703244,-6.956228,BCT,MKD,OTH,N,,821,active,2023-08-30T13:58:11.140,2023-08-30T13:58:11.140
8220DB007672,7672,Broombridge Station,Broombridge Station,Dhroichead Broome,Dhroichead Broome,,E0822013,713198,737153,53.3724256,-6.2988821,BCT,MKD,OTH,E,822G000001,822,active,2018-11-30T00:00:00.000,2021-03-25T16:47:54.000
8220DB001738,1738,Clontarf Road Pitches,Clontarf Rd,Páirceanna Bhóthar Chluain Tarbh,Br Chluain Tarbh,,E0822038,718211,736276,53.3634509,-6.2239143,BCT,MKD,OTH,NE,822G000003,822,active,2000-01-01T00:00:00.000,2023-10-11T10:59:20.864
8220DB007516,7516,Belmayne,Belmayne,Béal Maighne,Béal Maighne,,E0822748,721574,740661,53.4020759,-6.171727,BCT,MKD,OTH,E,822G000005,822,active,2000-01-01T00:00:00.000,2020-10-23T16:17:39.000
8220DB001228,1228,Kilbarron Road,Kilbarron Road,Bóthar Chill Bharrainn,Br Chill Bharrainn,Kilbarron Road,E0822040,718490,739509,53.392429,-6.2185127,BCT,MKD,OTH,W,822G000006,822,active,2000-01-01T00:00:00.000,2020-10-23T16:19:18.000
8220DB001237,1237,Cromcastle Avenue,Cromcastle Avenue,Ascaill Chaisleáin na Croma,Asc Chais na Croma,Kilbarron Road,E0822040,718458,739536,53.3926787,-6.2189835,BCT,MKD,OTH,E,822G000006,822,active,2000-01-01T00:00:00.000,2020-10-23T16:20:24.000
8220DB000497,497,Connolly,Connolly,Stáisiúin Uí Chonghaile,Stáis Uí Chonghaile,,E0822081,716464,734794,53.3505261,-6.2506943,BCT,MKD,OTH,NE,822G000008,822,active,2000-01-01T00:00:00.000,2020-10-23T16:21:34.000
8220B1351201,135121,Connolly Station,Connolly Station,Stáisiúin Uí Chonghaile,Stn Uí Chonghaile,Unknown,E0822081,716476,734760,53.350218,-6.2505267,BCT,MKD,OTH,S,822G000008,822,active,2000-01-01T00:00:00.000,2020-10-23T16:22:16.000
8220DB004415,4415,Connolly Train Station,Connolly Train Stn,Stáisiúin Uí Chonghaile,Stn Uí Chonghaile,,E0822081,716488,734794,53.3505208,-6.250334,BCT,MKD,OTH,S,822G000008,822,active,2000-01-01T00:00:00.000,2023-05-05T09:53:04.682
8220DB001500,1500,Connolly,Connolly,Stáisiúin Uí Chonghaile,Stáis Uí Chonghaile,,E0822081,716498,734852,53.3510396,-6.2501626,BCT,MKD,OTH,S,822G000008,822,active,2000-01-01T00:00:00.000,2020-10-23T16:23:52.000
8220DB000592,592,James Larkin Road,James Larkin Road,Bóthar Séamais Uí Lorcáin,Séamais Uí Lorcáin,,E0822043,723182,738549,53.382733,-6.1483829,BCT,CUS,OTH,N,822G000010,822,active,2000-01-01T00:00:00.000,2020-11-20T20:06:17.000
8220DB007513,7513,Phoenix Park,Phoenix Park,Páirc an Fhionnuisce,Páirc an Fhionnuisce,,E0822057,713394,734761,53.3508965,-6.2967954,BCT,MKD,OTH,SE,822G000011,822,active,2000-01-01T00:00:00.000,2021-11-18T16:01:55.000
8220DB006042,6042,Church Avenue,Church Avenue,Ascaill an Teampaill,Ascaill an Teampaill,Upper Rathmines Road,E0822015,715595,731391,53.3201481,-6.2649816,BCT,MKD,OTH,S,822G000013,822,active,2000-01-01T00:00:00.000,2019-03-01T11:24:41.000
8220DB007686,7686,Broombridge,Broombridge,Droichead Broome,Droichead Broome,,E0822750,713183,737157,53.3724648,-6.299106,BCT,MKD,OTH,W,822G000015,822,active,2018-12-03T00:00:00.000,2021-03-23T11:35:35.000
8220DB007588,7588,Pearse Street,Pearse Street,Sráid an Phiarsaigh,Sráid an Phiarsaigh,,E0822090,716254,734172,53.344985,-6.254075,BCT,MKD,OTH,W,822G000016,822,active,2015-01-15T00:00:00.000,2021-11-17T15:03:27.000
8220DB007577,7577,Grantham Street,Grantham Street,Sráid Grantham,Sráid Grantham,,E0822076,715537,732913,53.3338326,-6.2652971,BCT,MKD,OTH,N,822G000017,822,active,2015-01-15T00:00:00.000,2021-03-23T11:28:43.000
8220DB002184,2184,Drimnagh Road Junc,Drimnagh Road Junc,Br Dhroimeanaigh,Br Dhroimeanaigh,Walkinstown Road,E0822004,711313,731606,53.3229966,-6.3291461,BCT,MKD,OTH,NE,822G000018,822,active,2000-01-01T00:00:00.000,2019-02-22T12:56:45.000
8220DB002102,2102,Balfe Road,Balfe Road,Bóthar an Bhailfigh,Bóthar an Bhailfigh,Drimnagh Road,E0822008,711510,731744,53.3241948,-6.3261419,BCT,MKD,OTH,W,822G000019,822,active,2000-01-01T00:00:00.000,2018-09-10T16:01:51.000
8220DB001409,1409,Loreto College,Loreto College,Coláiste Loreto,Coláiste Loreto,Crumlin Road,E0822017,713411,732476,53.3303667,-6.2973582,BCT,MKD,OTH,SW,822G000020,822,active,2000-01-01T00:00:00.000,2019-01-14T14:49:44.000
8220DB001436,1436,Herberton Road,Herberton Road,Bóthar Herberton,Bóthar Herberton,Crumlin Road,E0822017,713466,732535,53.330885,-6.2965117,BCT,MKD,OTH,NE,822G000021,822,active,2000-01-01T00:00:00.000,2019-01-14T14:44:43.000
8220DB001407,1407,Crumlin Road,Crumlin Road,Bóthar Chromghlinne,Bóthar Chromghlinne,Crumlin Road,E0822017,713602,732611,53.3315385,-6.2944437,BCT,MKD,OTH,SW,822G000022,822,active,2000-01-01T00:00:00.000,2019-01-14T14:49:26.000
8220DB001238,1238,Kilmore Avenue,Kilmore Avenue,Asc na Coille Móire,Asc na Coille Móire,Kilmore Road,E0822040,718732,739419,53.3915662,-6.2149101,BCT,MKD,OTH,S,822G000023,822,active,2000-01-01T00:00:00.000,2020-01-17T13:05:04.000
8220DB001222,1222,Ardlea Road,Ardlea Road,Bóthar Ard Liath,Bóthar Ard Liath,Ardlea Road,E0822036,719289,738598,53.3840662,-6.2068503,BCT,MKD,OTH,NW,822G000024,822,active,2000-01-01T00:00:00.000,2019-02-22T14:54:38.000
8220DB001242,1242,Ardbeg Road,Ardbeg Road,Bóthar an Aird Bhig,Bóthar an Aird Bhig,Ardlea Road,E0822036,719273,738645,53.3844919,-6.2070729,BCT,MKD,OTH,SE,822G000025,822,active,2000-01-01T00:00:00.000,2019-02-22T15:02:17.000
8220DB001080,1080,Auburn Villas,Auburn Villas,Achadh na Gréine,Achadh na Gréine,Rathgar Road,E0822014,715150,730797,53.3149092,-6.2718731,BCT,MKD,OTH,SW,822G000026,822,active,2000-01-01T00:00:00.000,2019-02-21T12:06:14.000
8220DB000770,770,RTE,RTE,RTÉ,RTÉ,Stillorgan Road,E0822030,718225,730842,53.3146362,-6.2257318,BCT,MKD,OTH,NW,822G000029,822,active,2000-01-01T00:00:00.000,2020-10-23T16:24:22.000
8220B1353301,135331,Dawson Street,Dawson Street,Sráid Dhásain,Sráid Dhásain,,E0822091,715967,733625,53.3401344,-6.2585836,BCT,MKD,OTH,N,822G000060,822,active,2000-01-01T00:00:00.000,2020-10-23T16:24:52.000
8220000408,,Bachelors Walk,Bachelors Walk,Siúlán Bhaitsiléir,Siúlán Bhaitsiléir,,E0822013,715803,734409,53.3472128,-6.2607584,BCT,MKD,OTH,E,822G000061,822,active,1969-12-31T00:00:00.000,2020-10-23T16:25:35.000
8220000386,,Schoolhouse Hotel,Schoolhouse Hotel,Óstán Schoolhouse,Óstán Schoolhouse,,E0822091,717242,733333,53.3372306,-6.2395555,BCT,MKD,OTH,SE,822G000079,822,active,1969-12-31T00:00:00.000,2020-10-23T16:26:17.000
8220000372,,East Wall Road,East Wall Road,Bóthar an Phoirt Thoir,Br an Phoirt Thoir,,E0822055,718107,734864,53.3507907,-6.226003,BCT,MKD,OTH,SW,822G000087,822,active,1969-12-31T00:00:00.000,2020-10-23T16:27:57.000
8220DB001359,1359,College Green,College Green,Faiche an Choláiste,Faiche an Choláiste,,E0822091,715770,734095,53.3443994,-6.2613686,BCT,MKD,OTH,E,822G000088,822,active,2000-01-01T00:00:00.000,2020-10-23T16:28:39.000
8220DB004522,4522,College Green,College Green,Faiche an Choláiste,Faiche an Choláiste,,E0822091,715821,734081,53.3442625,-6.2606082,BCT,MKD,OTH,W,822G000088,822,active,2000-01-01T00:00:00.000,2020-10-23T16:29:20.000
8220DB001279,1279,College Green,College Green,Faiche an Choláiste,Faiche an Choláiste,,E0822091,715748,734079,53.3442605,-6.2617047,BCT,MKD,OTH,W,822G000088,822,active,2000-01-01T00:00:00.000,2020-10-27T09:40:23.000
8220DB001278,1278,College Green,College Green,Faiche an Choláiste,Faiche an Choláiste,,E0822091,715775,734077,53.3442366,-6.2613001,BCT,MKD,OTH,W,822G000088,822,active,2000-01-01T00:00:00.000,2020-10-27T09:42:19.000
8220DB004521,4521,College Green,College Green,Faiche an Choláiste,Faiche an Choláiste,,E0822091,715850,734086,53.3443011,-6.2601711,BCT,MKD,OTH,W,822G000088,822,active,2000-01-01T00:00:00.000,2020-10-27T09:43:36.000
8220DB002498,2498,IFSC,IFSC,IFSC,IFSC,,E0822073,716509,734541,53.3482435,-6.2501119,BCT,MKD,OTH,E,822G000120,822,active,2000-01-01T00:00:00.000,2022-03-28T13:25:11.000
8220000255,,Sussex Road,Sussex Road,Bóthar Sussex,Bóthar Sussex,,E0822091,716640,732483,53.3297282,-6.248903,BCT,MKD,OTH,SE,822G000128,822,active,2000-01-01T00:00:00.000,2020-10-27T09:45:49.000
8220B1021701,102171,Sussex Road,Sussex Road,Bóthar Sussex,Bóthar Sussex,,E0822091,716638,732481,53.3297107,-6.2489337,BCT,MKD,OTH,SE,822G000128,822,active,2000-01-01T00:00:00.000,2020-10-27T16:07:44.000
8220DB007611,7611,North Wall Quay,North Wall Quay,Cé an Phoirt Thuaidh,Cé an Phoirt Thuaidh,,E0822073,717421,734463,53.3473413,-6.2364502,BCT,MKD,OTH,E,822G000135,822,active,2000-01-01T00:00:00.000,2020-10-27T09:49:04.000
8220000243,,Arran Quay,,,,,E0822060,714805,734232,53.3458403,-6.2758041,BCT,MKD,OTH,E,822G000148,822,active,1969-12-31T00:00:00.000,2020-10-27T09:49:56.000
8220DB000494,494,Clare Street,Clare Street,Sráid an Chláraigh,Sráid an Chláraigh,,E0822091,716423,733781,53.3414356,-6.2516823,BCT,MKD,OTH,NW,822G000151,822,active,2000-01-01T00:00:00.000,2020-10-27T09:51:15.000
8220000242,,North Wall Quay,North Wall Quay,Cé an Phoirt Thuaidh,Cé an Phoirt Thuaidh,,E0822073,717022,734499,53.3477531,-6.2424264,BCT,MKD,OTH,E,822G000152,822,active,1969-12-31T00:00:00.000,2020-10-27T09:53:35.000
8220DB001490,1490,Árd Scoil Rís,Árd Scoil Rís,Árd Scoil Rís,Ard-Scoil Rís,Griffith Avenue,E0822032,717887,736872,53.3688768,-6.2285577,BCT,MKD,OTH,SE,822G000164,822,active,2000-01-01T00:00:00.000,2020-11-19T11:03:09.000
8220DB001491,1491,Griffith Avenue,Griffith Avenue,Ascaill Uí Ghríofa,Ascaill Uí Ghríofa,Griffith Avenue,E0822032,717949,736828,53.3684678,-6.2276429,BCT,MKD,OTH,W,822G000164,822,active,2000-01-01T00:00:00.000,2020-10-27T09:55:42.000
8220B007612,7612,Merrion Square,Merrion Square,Cearnóg Mhuirfean,Cearnóg Mhuirfean,,E0822065,716515,733786,53.3414603,-6.2502996,BCT,MKD,OTH,SW,822G000166,822,active,2000-01-01T00:00:00.000,2021-03-22T11:00:56.000
8220000233,,Merrion street lower,Merrion street lower,Sráid Mhuirfean Íochtarach,Sráid Mhuirfean Íochtarach,,E0822065,716511,733796,53.341551,-6.2503559,BCT,MKD,OTH,SW,822G000166,822,active,2000-01-01T00:00:00.000,2021-03-22T11:01:10.000
8220DB000318,318,Westmoreland Street,Westmoreland Street,Sráid Westmoreland,Sráid Westmoreland,Westmoreland Street,E0822091,715906,734323,53.3464177,-6.2592437,BCT,MKD,OTH,N,822G000182,822,active,2000-01-01T00:00:00.000,2020-10-27T10:09:17.000
8220DB006032,6032,Cathal Brugha Street,Cathal Brugha St,Sráid Chathail Brugha,Sd Chathail Brugha,,E0822013,715821,734949,53.3520595,-6.2602907,BCT,MKD,OTH,W,822G000184,822,active,2000-01-01T00:00:00.000,2023-10-11T11:51:37.119
8220DB004508,4508,Cathal Brugha Street,Cathal Brugha St,Sráid Chathail Brugha,Sd Chathail Brugha,,E0822013,715843,734971,53.3522523,-6.2599524,BCT,MKD,OTH,E,822G000184,822,active,2000-01-01T00:00:00.000,2023-05-15T12:12:48.641
8220DB000286,286,Cathal Brugha Street,Cathal Brugha St,Sráid Chathail Brugha,Sd Chathail Brugha,Cathal Brugha Street,E0822013,715846,734962,53.3521708,-6.2599106,BCT,MKD,OTH,W,822G000184,822,active,2000-01-01T00:00:00.000,2023-05-15T12:12:14.208
8220DB000278,278,O'Connell Street Upper,O'Connell St Upper,Sráid Uí Chonaill Uachtarach,Sd Uí Chonaill Uacht,,E0822013,715760,734892,53.3515609,-6.2612273,BCT,MKD,OTH,N,822G000184,822,active,2000-01-01T00:00:00.000,2023-10-11T09:35:00.137
8220DB001737,1737,Alfie Byrne Road,Alfie Byrne Road,Bóthar Ailf Uí Bhroin,Br Ailf Uí Bhroin,Clontarf Road,E0822038,718492,736217,53.362858,-6.2197167,BCT,MKD,OTH,NW,822G000187,822,active,2000-01-01T00:00:00.000,2020-10-27T10:42:50.000
8220DB001741,1741,Alfie Byrne Road,Alfie Byrne Road,Bóthar Ailf Uí Bhroin,Br Ailf Uí Bhroin,,E0822038,718419,736244,53.3631169,-6.2208028,BCT,MKD,OTH,E,822G000187,822,active,2000-01-01T00:00:00.000,2020-10-27T10:44:20.000
8220DB001349,1349,Carlisle Street,Carlisle Street,Sráid Carlisle,Sráid Carlisle,South Circular Road,E0822076,715169,732743,53.3323857,-6.2708813,BCT,MKD,OTH,E,822G000188,822,active,2000-01-01T00:00:00.000,2020-10-27T16:08:31.000
8220DB000997,997,Northside SC,Northside SC,IS Northside,IS Northside,Oscar Traynor Road,E0822035,718952,739714,53.3941666,-6.2114931,BCT,MKD,OTH,SE,822G000423,822,active,2000-01-01T00:00:00.000,2018-11-21T13:37:58.000
8220DB000968,968,Armstrong Walk,Armstrong Walk,Siúlán Armstrong,Siúlán Armstrong,Oscar Traynor Road,E0822035,719007,739670,53.393759,-6.2106832,BCT,MKD,OTH,NW,822G000424,822,active,2000-01-01T00:00:00.000,2020-10-27T10:45:52.000
8220DB005060,5060,Dundaniel Road,Dundaniel Road,Bóthar Dhún Dónaill,Bóthar Dhún Dónaill,Dundaniel Road,E0822754,718110,740027,53.397167,-6.2240292,BCT,MKD,OTH,S,822G000426,822,active,2000-01-01T00:00:00.000,2020-10-27T10:47:05.000
8220DB006078,6078,Cromcastle Road,Cromcastle Road,B Chaisléan na Croma,B Chaisléan na Croma,Dundaniel Road,E0822754,718097,740035,53.3972418,-6.2242216,BCT,MKD,OTH,N,822G000426,822,active,2000-01-01T00:00:00.000,2021-11-17T12:29:31.000
8220DB000967,967,Coolock Drive,Coolock Drive,Céide na Cúlóige,Céide na Cúlóige,Oscar Traynor Road,E0822035,719298,739514,53.3922921,-6.2063691,BCT,MKD,OTH,NW,822G000427,822,active,2000-01-01T00:00:00.000,2020-10-27T10:49:20.000
8220DB001004,1004,Rathvale,Rathvale,Ráth an Ghleanna,Ráth an Ghleanna,Tonlegee Road,E0822044,720648,739364,53.3906382,-6.1861404,BCT,MKD,OTH,E,822G000428,822,active,2000-01-01T00:00:00.000,2020-10-27T10:50:14.000
8220DB000963,963,Rathvale,Rathvale,Ráth an Ghleanna,Ráth an Ghleanna,Tonlegee Road,E0822044,720618,739349,53.3905103,-6.186597,BCT,MKD,OTH,E,822G000428,822,active,2000-01-01T00:00:00.000,2020-10-27T16:08:57.000
8220DB000964,964,St John's Church,St John's Church,Séipéal Naomh Eoin,Séipéal N Eoin,Tonlegee Road,E0822044,720249,739291,53.3900734,-6.1921637,BCT,MKD,OTH,W,822G000429,822,active,2000-01-01T00:00:00.000,2020-10-27T10:51:42.000
8220DB000966,966,Oscar Traynor Road,Oscar Traynor Road,Bóthar Oscair Mhic Thréinir,Br Oscair M Thréinir,Oscar Traynor Road,E0822035,719531,739400,53.3912154,-6.202911,BCT,MKD,OTH,SE,822G000430,822,active,2000-01-01T00:00:00.000,2020-10-27T10:53:50.000
8220DB000979,979,St Canice's GNS,St Canice's GNS,Scoil Náisiúnta Cailíní Chainnigh,SNC Chainnigh,Seamus Ennis Road,E0822022,713270,739106,53.3899538,-6.2971006,BCT,MKD,OTH,W,822G000432,822,active,2000-01-01T00:00:00.000,2020-10-27T10:55:26.000
8220DB000972,972,Aulden Grange,Aulden Grange,Gráinseach Aulden,Gráinseach Aulden,Oscar Traynor Road,E0822040,717386,739990,53.396996,-6.2349238,BCT,MKD,OTH,W,822G000434,822,active,2000-01-01T00:00:00.000,2020-10-27T10:56:03.000
8220DB001028,1028,South Hill,South Hill,An Cnoc Theas,An Cnoc Theas,Milltown Road,E0822072,716244,730110,53.3084991,-6.2557147,BCT,MKD,OTH,E,822G000437,822,active,2000-01-01T00:00:00.000,2020-10-27T10:56:41.000
8220DB001062,1062,South Hill,South Hill,An Cnoc Theas,An Cnoc Theas,Milltown Road,E0822072,716271,730084,53.3082596,-6.2553193,BCT,MKD,OTH,W,822G000437,822,active,2000-01-01T00:00:00.000,2020-10-27T10:57:22.000
8220DB001027,1027,Dodder Walk,Dodder Walk,Siúlan na Dothra,Siúlan na Dothra,Milltown Road,E0822072,716097,730133,53.3087379,-6.2579109,BCT,MKD,OTH,E,822G000438,822,active,2000-01-01T00:00:00.000,2022-06-10T16:33:21.000
8220DB001063,1063,Dodder Walk,Dodder Walk,Siúlan na Dothra,Siúlan na Dothra,Milltown Road,E0822072,716034,730113,53.3085721,-6.2588631,BCT,MKD,OTH,W,822G000438,822,active,2000-01-01T00:00:00.000,2022-06-10T16:23:47.000
8220DB001064,1064,Dartry Road,Dartry Road,Bóthar Dhartraí,Bóthar Dhartraí,Dartry Road,E0822014,715894,730205,53.3094291,-6.2609292,BCT,MKD,OTH,NW,822G000439,822,active,2000-01-01T00:00:00.000,2020-10-27T10:59:00.000
8220DB001026,1026,Orwell Park,Orwell Park,Páirc Orwell,Páirc Orwell,Dartry Road,E0822014,715935,730170,53.3091058,-6.2603271,BCT,MKD,OTH,SE,822G000439,822,active,2000-01-01T00:00:00.000,2020-10-27T10:59:33.000
8220DB001023,1023,Rathmines Close,Rathmines Close,Clós Ráth Maonais,Clós Ráth Maonais,Upper Rathmines Road,E0822015,715608,731046,53.3170462,-6.2649123,BCT,MKD,OTH,S,822G000440,822,active,2000-01-01T00:00:00.000,2020-10-27T11:00:07.000
8220DB001024,1024,Frankfort Avenue,Frankfort Avenue,Ascaill Frankfort,Ascaill Frankfort,Upper Rathmines Road,E0822015,715604,730913,53.3158523,-6.2650208,BCT,MKD,OTH,S,822G000441,822,active,2000-01-01T00:00:00.000,2020-10-27T11:00:40.000
8220DB001065,1065,Trinity Hall,Trinity Hall,Halla na Tríonóide,Halla na Tríonóide,Dartry Road,E0822014,715764,730469,53.311829,-6.2627827,BCT,MKD,OTH,N,822G000442,822,active,2000-01-01T00:00:00.000,2020-10-27T11:01:16.000
8220DB001025,1025,Trinity Hall,Trinity Hall,Halla na Tríonóide,Halla na Tríonóide,Dartry Road,E0822014,715785,730444,53.3115999,-6.2624768,BCT,MKD,OTH,S,822G000442,822,active,2000-01-01T00:00:00.000,2020-10-27T11:01:47.000
8220DB001018,1018,St Mary's College,St Mary's College,Coláiste Mhuire,Coláiste Mhuire,,E0822015,715597,732219,53.3275855,-6.2646497,BCT,MKD,OTH,N,822G000443,822,active,2000-01-01T00:00:00.000,2020-10-27T11:02:26.000
8220DB001071,1071,St Mary's College,St Mary's College,Coláiste Mhuire,Coláiste Mhuire,,E0822015,715584,732186,53.32729,-6.26485,BCT,MKD,OTH,S,822G000443,822,active,2000-01-01T00:00:00.000,2023-10-18T13:56:24.762
8220DB001072,1072,South Richmond Street,South Richmond St,Sráid Richmond Theas,Sráid Richmond Theas,Richmond Street Sth,E0822092,715592,732602,53.331027,-6.2645851,BCT,MKD,OTH,S,822G000444,822,active,2000-01-01T00:00:00.000,2023-05-05T14:16:22.001
8220DB001016,1016,South Richmond Street,South Richmond St,Sráid Richmond Theas,Sráid Richmond Theas,,E0822092,715605,732606,53.331061,-6.264386,BCT,MKD,OTH,N,822G000444,822,active,2000-01-01T00:00:00.000,2023-10-11T10:19:01.903
8220DB001067,1067,Rathmines Close,Rathmines Close,Clós Ráth Maonais,Clós Ráth Maonais,Upper Rathmines Road,E0822015,715587,731046,53.3170508,-6.2652273,BCT,MKD,OTH,N,822G000446,822,active,2000-01-01T00:00:00.000,2020-10-27T11:04:52.000
8220DB001007,1007,Millbrook Drive,Millbrook Drive,Céide Shruthán an Mhuilinn,Cde Srn an Mhuilinn,Tonlegee Road,E0822044,721561,739455,53.3912463,-6.1723867,BCT,MKD,OTH,E,822G000448,822,active,2000-01-01T00:00:00.000,2020-10-27T11:07:13.000
8220DB001003,1003,St John's Church,St John's Church,Séipéal Naomh Eoin,Séipéal N Eoin,Tonlegee Road,E0822044,720321,739318,53.3902995,-6.1910715,BCT,MKD,OTH,E,822G000449,822,active,2000-01-01T00:00:00.000,2020-10-27T11:08:15.000
8220DB001019,1019,Military Road,Military Road,An Bóthar Míleata,An Bóthar Míleata,Lower Rathmines Road,E0822015,715578,732103,53.3265476,-6.2649771,BCT,MKD,OTH,N,822G000450,822,active,2000-01-01T00:00:00.000,2020-10-27T11:56:53.000
8220DB001070,1070,Rathmines,Rathmines,Ráth Maonais,Ráth Maonais,Lower Rathmines Road,E0822015,715557,731928,53.3249802,-6.265356,BCT,MKD,OTH,N,822G000451,822,active,2000-01-01T00:00:00.000,2020-10-27T11:58:17.000
8220DB001020,1020,Rathmines,Rathmines,Ráth Maonais,Ráth Maonais,Lower Rathmines Road,E0822015,715573,731946,53.3251384,-6.2651094,BCT,MKD,OTH,S,822G000451,822,active,2000-01-01T00:00:00.000,2020-10-27T11:59:34.000
8220DB001021,1021,Rathmines Road Upper,Rathmines Rd Upper,Bóthar Ráth Maonais Uachtarach,Br Ráth Maonais Uach,Upper Rathmines Road,E0822015,715547,731527,53.3213802,-6.2656521,BCT,MKD,OTH,S,822G000452,822,active,2000-01-01T00:00:00.000,2023-05-05T14:13:57.093
8220DB001017,1017,Rathmines Road Lower,Rathmines Rd Lower,Bóthar Ráth Maonais Íochtarach,Br Ráth Maonais Íoch,Lower Rathmines Road,E0822015,715614,732418,53.329369,-6.264322,BCT,MKD,OTH,N,822G000453,822,active,2000-01-01T00:00:00.000,2023-10-11T10:19:50.117
8220DB001013,1013,Earlsfort Terrace,Earlsfort Terrace,Ardán Phort an Iarla,Ardán Phort an Iarla,Earlsfort Terrace,E0822091,715999,732963,53.334181,-6.258346,BCT,MKD,OTH,S,822G000454,822,active,2000-01-01T00:00:00.000,2022-10-10T14:33:34.000
8220DB001015,1015,Adelaide Road,Adelaide Road,Bóthar Adelaide,Bóthar Adelaide,Adelaide Road,E0822091,715895,732799,53.3327304,-6.2599664,BCT,MKD,OTH,W,822G000455,822,active,2000-01-01T00:00:00.000,2020-10-27T12:04:28.000
8220DB002412,2412,Lavarna,Lavarna,Leathbhearna,Leathbhearna,Fortfield Road,E0822010,713165,730307,53.3109352,-6.3018235,BCT,MKD,OTH,NE,822G000456,822,active,2000-01-01T00:00:00.000,2021-02-08T18:29:17.000
8220DB006361,6361,Jamestown Road,Jamestown Road,Bóthar Bhaile Shéamais,Br Bhaile Shéamais,Jamestown Road,E0822012,713580,740894,53.4059486,-6.2917991,BCT,MKD,OTH,S,822G000475,822,active,2000-01-01T00:00:00.000,2020-10-27T12:05:23.000
8220DB006276,6276,Seagrave Terrace,Seagrave Terrace,Ardán Seagrave,Ardán Seagrave,Jamestown Road,E0822012,713571,740910,53.4060943,-6.2919287,BCT,MKD,OTH,S,822G000475,822,active,2000-01-01T00:00:00.000,2020-10-27T16:09:24.000
8220DB001807,1807,Phoenix Park Avenue,Phoenix Park Avenue,Ascaill Pháirc an Fhionnuisce,Páirc an Fhionnuisce,Navan Road,E0822001,710506,737311,53.3744145,-6.3392629,BCT,MKD,OTH,NW,822G000558,822,active,2000-01-01T00:00:00.000,2020-10-27T16:10:24.000
8220DB001847,1847,Old Racecourse,Old Racecourse,Sean Ráschúrsa,Sean Ráschúrsa,Navan Road,E0822001,710865,737151,53.372902,-6.3339263,BCT,MKD,OTH,SE,822G000558,822,active,2000-01-01T00:00:00.000,2020-10-27T16:10:52.000
8220DB001668,1668,Old Race Course,Old Race Course,Sean-Ráschúrsa,Sean-Ráschúrsa,Castleknock Road,E0822001,710446,736912,53.3708427,-6.3403036,BCT,MKD,OTH,W,822G000569,822,active,2000-01-01T00:00:00.000,2020-10-27T16:11:18.000
8220DB001694,1694,Old Race Course,Old Race Course,Sean-Ráschúrsa,Sean-Ráschúrsa,Castleknock Road,E0822001,710470,736932,53.3710174,-6.3399361,BCT,MKD,OTH,E,822G000569,822,active,2000-01-01T00:00:00.000,2020-10-27T16:11:49.000
8220DB001667,1667,Castleknock Road,Castleknock Road,Bóthar Chaisleán Cnucha,Br Chaisleán Cnucha,Castleknock Road,E0822001,710832,736924,53.3708698,-6.3345015,BCT,MKD,OTH,W,822G000570,822,active,2000-01-01T00:00:00.000,2020-10-27T16:12:18.000
8220DB001695,1695,Ashtown Gate,Ashtown Gate,Geata Bhaile an Ásaigh,Gta Bhaile an Ásaigh,Castleknock Road,E0822001,710848,736940,53.3710101,-6.3342556,BCT,MKD,OTH,E,822G000570,822,active,2000-01-01T00:00:00.000,2020-10-27T16:12:49.000
8220DB007113,7113,Northwood Avenue,Northwood Avenue,Ascaill Northwood,Ascaill Northwood,Ballymun Road,E0822047,715376,740558,53.4025411,-6.2649243,BCT,MKD,OTH,S,822G000631,822,active,2000-01-01T00:00:00.000,2020-10-27T16:13:17.000
8220DB006362,6362,Mayeston Lawn,Mayeston Lawn,Plásóg Mayestown,Plásóg Mayestown,St. Margaret's Road,E0822012,713728,740959,53.4065006,-6.2895509,BCT,MKD,OTH,E,822G000670,822,active,2000-01-01T00:00:00.000,2020-10-27T16:13:43.000
8220DB001579,,Heathfield Avenue,Heathfield Avenue,Gort an Fhraoigh,Gort an Fhraoigh,Cappagh Road,E0824917,711307,739595,53.394764,-6.326426,BCT,CUS,OTH,NW,822G000740,822,active,2000-01-01T00:00:00.000,2021-09-13T11:12:59.000
8220DB001582,,Heathfield Avenue,Heathfield Avenue,Gort an Fhraoigh,Gort an Fhraoigh,Cappagh Road,E0824917,711257,739635,53.395134,-6.327163,BCT,MKD,OTH,SE,822G000740,822,active,2000-01-01T00:00:00.000,2021-09-13T11:14:05.000
8220DB001012,1012,Naomh Barróg GAA,Naomh Barróg GAA,Naomh Barróg GAA,Naomh Barróg GAA,Kilbarrack Parade,E0822043,722878,739378,53.39025,-6.1526274,BCT,MKD,OTH,NE,822G000749,822,active,2000-01-01T00:00:00.000,2020-11-19T11:04:02.000
8220DB007277,7277,Ballymun United Football Club,Ballymun United FC,CS Bhaile Munna,CS Bhaile Munna,St. Margaret's Road,E0822047,714337,740918,53.4060008,-6.280411,BCT,MKD,OTH,E,822G000998,822,active,2000-01-01T00:00:00.000,2023-11-02T10:15:56.466
8220DB007276,7276,Ballymun United Football Club,Ballymun United FC,Cumann Sacair Bhaile Munna Aontaithe,CS Bhaile Munna,Saint Margaret's Road,E0822047,714308,740929,53.406106,-6.280843,BCT,MKD,OTH,E,822G000998,822,active,2000-01-01T00:00:00.000,2023-06-13T12:38:41.524
8220DB000956,956,Naomh Barróg GAA,Naomh Barróg GAA,Naomh Barróg GAA,CLG Naomh Barróg,Kilbarrack Parade,E0822043,722861,739331,53.3898318,-6.1529011,BCT,MKD,OTH,SW,822G001497,822,active,2000-01-01T00:00:00.000,2020-10-27T16:17:06.000
8220DB004985,4985,Lanesborough Estate,Lanesborough Estate,Eastát Bhéal Átha Liag,Eas Bhéal Átha Liag,Jamestown Road,E0822012,713615,740491,53.402321,-6.2914181,BCT,MKD,OTH,S,822G001559,822,active,2000-01-01T00:00:00.000,2020-10-27T16:17:37.000
8220DB004364,4364,Cappagh Hospital,Cappagh Hospital,Ospidéal Cheapaí,Ospidéal Cheapaí,Cappagh Road,E0822024,711571,739395,53.3929114,-6.3225292,BCT,MKD,OTH,NW,822G001571,822,active,2000-01-01T00:00:00.000,2020-10-27T16:18:04.000
8220DB000322,322,Gulliver's Retail Park,Gulliver's Retail,PM Gulliver,PM Gulliver,Ballymun Road,E0822047,715343,740748,53.404255,-6.2653508,BCT,MKD,OTH,S,822G001656,822,active,2000-01-01T00:00:00.000,2023-05-15T14:15:00.243
8220DB004793,4793,Avila Park,Avila Park,Páirc Avila,Páirc Avila,Cappagh Road,E0822024,711686,739326,53.3922673,-6.3208254,BCT,MKD,OTH,SE,822G001691,822,active,2000-01-01T00:00:00.000,2020-10-27T16:19:01.000
8220DB002453,2453,Limekiln Grove,Limekiln Grove,Garran na Tiníleach,Garran na Tiníleach,St. Peter's Road,E0822004,711242,730695,53.3148279,-6.3305308,BCT,MKD,OTH,SE,822G001798,822,active,2000-01-01T00:00:00.000,2021-02-08T18:26:03.000
8220DB002452,2452,St Peter's Road,St Peter's Road,Bóthar Pheadair,Bóthar Pheadair,St. Peter's Road,E0822004,711130,730844,53.3161899,-6.3321587,BCT,MKD,OTH,SE,822G001803,822,active,2000-01-01T00:00:00.000,2021-02-08T18:23:51.000
8220DB002463,2463,St Peter's Road,St Peter's Road,Bóthar Pheadair,Bóthar Pheadair,St. Peter's Road,E0822004,711197,730747,53.3153045,-6.3311876,BCT,MKD,OTH,SE,822G001803,822,active,2000-01-01T00:00:00.000,2021-02-08T18:24:04.000
8220DB002436,2436,Lorcan O'Toole Park,Lorcan O'Toole Park,Páirc Lorc Uí Thuathail,Pc Lorc Uí Thuathail,Kimmage Road West,E0822010,712683,730604,53.3137059,-6.3089475,BCT,MKD,OTH,SE,822G001874,822,active,2000-01-01T00:00:00.000,2020-10-27T16:19:32.000
8220DB002414,2414,Westbrook,Westbrook,Sruthán Thiar,Sruthán Thiar,Kimmage Road West,E0822010,712555,730642,53.3140745,-6.310854,BCT,MKD,OTH,NW,822G001874,822,active,2000-01-01T00:00:00.000,2020-10-27T16:19:57.000
8220DB002415,2415,Royston Village,Royston Village,Sráidbhaile Royston,Sráidbhaile Royston,Kimmage Road West,E0822004,712371,730747,53.3150568,-6.3135769,BCT,MKD,OTH,NW,822G001875,822,active,2000-01-01T00:00:00.000,2020-10-27T16:20:47.000
8220DB002435,2435,Westbrook,Westbrook,Sruthán Thiar,Sruthán Thiar,Kimmage Road West,E0822009,712525,730668,53.3143144,-6.3112948,BCT,MKD,OTH,SE,822G001879,822,active,2000-01-01T00:00:00.000,2020-10-27T16:21:11.000
8220DB002434,2434,Kimmage Road West,Kimmage Road West,Bóthar Chamaí Thiar,Bóthar Chamaí Thiar,Kimmage Road West,E0822009,712203,730851,53.3160266,-6.3160602,BCT,MKD,OTH,SE,822G001881,822,active,2000-01-01T00:00:00.000,2020-10-27T16:21:37.000
8220DB002197,2197,Lucan Road,Lucan Road,Bóthar Leamhcáin,Bóthar Leamhcáin,Lucan Road,E0822005,710076,734379,53.3481656,-6.3467422,BCT,MKD,OTH,NW,822G001935,822,active,2000-01-01T00:00:00.000,2020-10-27T16:22:01.000
8220PB003774,,Nassau St,Nassau St,Sráid Nassau,Sráid Nassau,,E0822090,716075,733923,53.3427876,-6.2568535,BCT,MKD,OTH,SE,822G001942,822,active,1969-12-31T00:00:00.000,2020-10-27T16:22:29.000
8220DB000758,758,Victoria Avenue,Victoria Avenue,Ascaill Victoria,Ascaill Victoria,Morehampton Road,E0822030,717407,731718,53.3226869,-6.2376774,BCT,MKD,OTH,SE,822G001957,822,active,2000-01-01T00:00:00.000,2020-10-27T16:22:56.000
8220PB002219,,Donnybrook,Donnybrook,Domhnach Broc,Domhnach Broc,Donnybrook Road,E0822030,717405,731718,53.3226874,-6.2377074,BCT,MKD,OTH,SE,822G001957,822,active,1969-12-31T00:00:00.000,2020-10-27T16:23:23.000
8220DB001074,1074,Harcourt Luas,Harcourt Luas,Luas Fhearchair,Luas Fhearchair,Hatch Street Upper,E0822076,715773,732938,53.334001,-6.261742,BCT,MKD,OTH,E,822G001965,822,active,2000-01-01T00:00:00.000,2023-09-05T12:55:26.260
8220DB000339,339,Burgh Quay,Burgh Quay,Cé an Bhúrcaigh,Cé an Bhúrcaigh,Burgh Quay,E0822091,716058,734420,53.3472557,-6.2569265,BCT,MKD,OTH,W,822G001985,822,active,2000-01-01T00:00:00.000,2020-10-27T16:24:21.000
8220TR000329,,Grand Canal St,Grand Canal St,Sráid na Canálach Móire,Sd na Canálach Móire,Grand Canal Street Lower,E0822088,717181,733553,53.3392203,-6.2403896,TXR,,,,822G001991,822,active,1969-12-31T00:00:00.000,2020-10-27T16:24:53.000
8220DB001942,1942,St James Hospital,St James Hospital,Ospidéal San Séamas,Ospidéal San Séamas,James Street,E0822018,713561,733803,53.342255,-6.2946317,BCT,MKD,OTH,NE,822G002006,822,active,2000-01-01T00:00:00.000,2020-10-27T16:25:21.000
8220TR000334,,Eircom Building,,,,Saint John's Road West,E0822085,713402,734202,53.3458733,-6.2968754,TXR,,,,822G002007,822,active,1969-12-31T00:00:00.000,1969-12-31T23:00:00.000
8220DB000987,987,Finglas,Finglas,Fionnghlas,Fionnghlas,Finglas Village,E0822024,713118,739132,53.3902199,-6.2993754,BCT,MKD,OTH,E,822G002015,822,active,2000-01-01T00:00:00.000,2020-10-27T16:25:48.000
8220DB001079,1079,Frankfort Avenue,Frankfort Avenue,Ascaill Frankfort,Ascaill Frankfort,Rathgar Road,E0822014,715220,730993,53.3166546,-6.2707519,BCT,MKD,OTH,SW,822G002019,822,active,2000-01-01T00:00:00.000,2020-10-27T16:26:13.000
8220TR000078,,Taxi Rank,,,,,E0822091,715797,734107,53.3445013,-6.2609589,TXR,,,,822G002035,822,active,2000-01-01T00:00:00.000,2016-09-09T14:24:25.000
8220DB001992,1992,Inchicore Library,Inchicore Library,Llann Inse Chór,Llann Inse Chór,Emmet Road,E0822006,712601,733602,53.3406545,-6.3091128,BCT,MKD,OTH,E,822G002044,822,active,2000-01-01T00:00:00.000,2022-03-28T13:30:51.000
8220DB001945,1945,Inchicore Library,Inchicore Library,Llann Inse Chór,Llann Inse Chór,Emmet Road,E0822006,712563,733590,53.3405548,-6.3096874,BCT,MKD,OTH,W,822G002044,822,active,2000-01-01T00:00:00.000,2022-03-28T13:06:58.000
8220DB002432,2432,Beechfield Avenue,Beechfield Avenue,Ascaill Ghort na Feá,Ascaill Ghort na Feá,Cromwellsfort Road,E0822004,711571,730946,53.3170135,-6.3255074,BCT,MKD,OTH,E,822G002065,822,active,2000-01-01T00:00:00.000,2020-10-29T11:13:43.000
8220DB002418,2418,Bigger Road,Bigger Road,Bóthar Bigger,Bóthar Bigger,Cromwellsfort Road,E0822004,711479,730939,53.31697,-6.32689,BCT,MKD,OTH,W,822G002065,822,active,2000-01-01T00:00:00.000,2020-10-29T11:14:11.000
8220DB002444,2444,Mount Argus Road,Mount Argus Road,Bóthar Chnocán Argos,Bóthar Chnocán Argos,Lower Kimmage Road,E0822016,714605,731829,53.3242977,-6.2796753,BCT,MKD,OTH,N,822G002066,822,active,2000-01-01T00:00:00.000,2020-10-29T11:14:45.000
8220DB002448,2448,Cashel Road,Cashel Road,Bóthar Chaisil,Bóthar Chaisil,Cashel Road,E0822009,712988,731235,53.3193092,-6.3041478,BCT,MKD,OTH,NW,822G002067,822,active,2000-01-01T00:00:00.000,2020-10-29T11:15:15.000
8220DB002449,2449,Armagh Road,Armagh Road,Bóthar Ard Mhacha,Bóthar Ard Mhacha,Armagh Road,E0822009,712922,731420,53.3209852,-6.3050721,BCT,MKD,OTH,SW,822G002068,822,active,2000-01-01T00:00:00.000,2020-10-29T11:15:43.000
8220DB002450,2450,Scoil Una Naofa,Scoil Una Naofa,Scoil Una Naofa,Scoil Una Naofa,Armagh Road,E0822009,712751,731332,53.3202311,-6.3076688,BCT,MKD,OTH,SW,822G002069,822,active,2000-01-01T00:00:00.000,2020-10-29T11:16:09.000
8220DB002443,2443,Brookfield,Brookfield,Gort an tSrutháin,Gort an tSrutháin,Lower Kimmage Road,E0822010,714347,731555,53.3218922,-6.283645,BCT,MKD,OTH,NE,822G002070,822,active,2000-01-01T00:00:00.000,2020-10-29T11:16:37.000
8220DB002393,2393,Corrib Road,Corrib Road,Bóthar Loch Coirib,Bóthar Loch Coirib,Lower Kimmage Road,E0822010,713578,730792,53.3152036,-6.2954553,BCT,MKD,OTH,SW,822G002071,822,active,2000-01-01T00:00:00.000,2020-10-29T11:17:06.000
8220DB002440,2440,Aideen Avenue,Aideen Avenue,Ascaill Éadaoin,Ascaill Éadaoin,Lower Kimmage Road,E0822010,713650,730927,53.3164009,-6.2943269,BCT,MKD,OTH,NE,822G002071,822,active,2000-01-01T00:00:00.000,2020-10-29T11:17:43.000
8220DB002441,2441,Kimmage Grove,Kimmage Grove,Garrán Chamaí,Garrán Chamaí,Lower Kimmage Road,E0822010,713853,731228,53.3190612,-6.2911737,BCT,MKD,OTH,NE,822G002072,822,active,2000-01-01T00:00:00.000,2020-10-29T11:18:11.000
8220DB002442,2442,Mount Argus Church,Mount Argus Church,Séipéal Chnocán Argos,Séip Chnocán Argos,Lower Kimmage Road,E0822010,714192,731391,53.3204524,-6.2860295,BCT,MKD,OTH,NE,822G002073,822,active,2000-01-01T00:00:00.000,2020-10-29T11:18:55.000
8220DB002391,2391,Mount Argus Church,Mount Argus Church,Séipéal Chnocán Argos,Séip Chnocán Argos,Lower Kimmage Road,E0822010,714166,731362,53.3201975,-6.28643,BCT,MKD,OTH,SW,822G002073,822,active,2000-01-01T00:00:00.000,2020-10-29T11:19:26.000
8220DB002314,2314,Cork Street,Cork Street,Sráid Chorcaí,Sráid Chorcaí,Cork Street,E0822071,714491,733391,53.3383537,-6.2808215,BCT,MKD,OTH,E,822G002074,822,active,2000-01-01T00:00:00.000,2020-10-29T11:19:54.000
8220DB002380,2380,Ardee Street,Ardee Street,Sráid Baile Átha Fhirdhia,Sd BÁ Fhirdhia,Cork Street,E0822071,714534,733409,53.3385061,-6.2801696,BCT,MKD,OTH,E,822G002074,822,active,2000-01-01T00:00:00.000,2020-10-29T11:20:42.000
8220DB002382,2382,St Luke's Avenue,St Luke's Avenue,Ascaill Lúcáis,Ascaill Lúcáis,St. Luke's Avenue,E0822071,714652,733451,53.3388578,-6.2783834,BCT,MKD,OTH,E,822G002075,822,active,2000-01-01T00:00:00.000,2020-10-29T11:21:11.000
8220DB002383,2383,Patrick's Cathedral,Patrick's Cathedral,Ard-Eaglais Phádraig,Ard-Eag Phádraig,Patrick Street,E0822071,715032,733527,53.3394581,-6.2726526,BCT,MKD,OTH,N,822G002076,822,active,2000-01-01T00:00:00.000,2020-10-29T11:21:43.000
8220DB002385,2385,Patrick Street,Patrick Street,Sráid Phádraig,Sráid Phádraig,Patrick Street,E0822091,715071,733846,53.3423151,-6.2719514,BCT,MKD,OTH,S,822G002077,822,active,2000-01-01T00:00:00.000,2020-10-29T11:22:14.000
8220DB002379,2379,Marion Villas,Marion Villas,Bailtíní Mhuire,Bailtíní Mhuire,Cork Street,E0822071,714238,733327,53.3378334,-6.2846417,BCT,MKD,OTH,NE,822G002078,822,active,2000-01-01T00:00:00.000,2020-10-29T11:42:11.000
8220DB002315,2315,Brickfield Lane,Brickfield Lane,Lána Ghort na mBrící,Lána Ghort na mBrící,Cork Street,E0822071,714199,733293,53.3375364,-6.2852393,BCT,MKD,OTH,SW,822G002078,822,active,2000-01-01T00:00:00.000,2020-10-29T11:57:51.000
8220DB002331,2331,St Mary's Road,St Mary's Road,Bóthar Mhuire,Bóthar Mhuire,St. Mary's Road,E0822008,712065,731799,53.3245718,-6.3177954,BCT,MKD,OTH,NE,822G002079,822,active,2000-01-01T00:00:00.000,2022-05-25T14:18:56.000
8220DB002332,2332,Walkinstown Mall,Walkinstown Mall,Meal Bhaile Bhailcín,Meal Bhaile Bhailcín,Walkinstown Road,E0822004,711194,731367,53.3208746,-6.3310153,BCT,MKD,OTH,S,822G002080,822,active,2000-01-01T00:00:00.000,2020-10-29T13:03:25.000
8220DB002183,2183,Walkinstown Shopping Centre,Walkinstown SC,Ionad Siopadóireachta Bhaile Bhailcín,IS Bhaile Bhailcín,Walkinstown Road,E0822004,711223,731460,53.321704,-6.3305476,BCT,MKD,OTH,NE,822G002080,822,active,2000-01-01T00:00:00.000,2023-05-26T15:05:09.169
8220DB002333,2333,Walkinstown Roundabout,Walkinstown,Timpeallán Bhaile Bhailcín,Timp Bhaile Bhailcín,Walkinstown Road,E0822004,711092,731027,53.3178418,-6.3326647,BCT,MKD,OTH,S,822G002081,822,active,2000-01-01T00:00:00.000,2023-10-11T11:42:58.207
8220DB002378,2378,Walkinstown Road,Walkinstown Road,Bóthar Bhaile Bhailcín,Br Bhaile Bhailcín,Walkinstown Road,E0822004,711089,731061,53.3181478,-6.3326978,BCT,MKD,OTH,N,822G002081,822,active,2000-01-01T00:00:00.000,2021-03-02T18:22:44.000
8220DB002439,2439,Ravensdale Park,Ravensdale Park,Páirc Ghleann na bhFiach,Pc Ghln na bhFiach,Lower Kimmage Road,E0822011,713433,730604,53.3135459,-6.2976976,BCT,MKD,OTH,NE,822G002082,822,active,2000-01-01T00:00:00.000,2020-10-29T15:42:34.000
8220DB002394,2394,Poddle Park,Poddle Park,Páirc an Phoitéil,Páirc an Phoitéil,Lower Kimmage Road,E0822011,713430,730572,53.3132591,-6.297754,BCT,MKD,OTH,SW,822G002082,822,active,2000-01-01T00:00:00.000,2020-10-29T15:43:02.000
8220DB002390,2390,Mount Argus Park,Mount Argus Park,Páirc Chnocán Argus,Páirc Chnocán Argus,Lower Kimmage Road,E0822016,714325,731514,53.3215286,-6.2839898,BCT,MKD,OTH,SW,822G002083,822,active,2000-01-01T00:00:00.000,2020-10-29T15:43:34.000
8220DB002635,2635,Lombard Street West,Lombard Street West,Sráid Lombard Thiar,Sráid Lombard Thiar,Lwr. Clanbrassil Street,E0822067,714895,732944,53.3342508,-6.2749202,BCT,MKD,OTH,N,822G002084,822,active,2000-01-01T00:00:00.000,2020-10-29T15:44:02.000
8220DB002388,2388,St. Kevin's Parade,St. Kevin's Parade,Paráid Chaoimhín,Paráid Chaoimhín,Clanbrassil Street,E0822067,714930,732968,53.3344588,-6.2743862,BCT,MKD,OTH,SW,822G002084,822,active,2000-01-01T00:00:00.000,2020-10-29T15:44:34.000
8220DB002389,2389,St Clare's Avenue,St Clare's Avenue,Ascaill San Clár,Ascaill San Clár,Lower Kimmage Road,E0822016,714635,731900,53.324929,-6.2791995,BCT,MKD,OTH,N,822G002085,822,active,2000-01-01T00:00:00.000,2020-10-29T15:45:04.000
8220DB002490,2490,Captain's Road,Captain's Road,Bóthar an Chaptaein,Bóthar an Chaptaein,Captain's Road,E0822009,712633,731253,53.3195465,-6.3094671,BCT,MKD,OTH,SE,822G002086,822,active,2000-01-01T00:00:00.000,2020-10-29T15:45:33.000
8220DB002491,2491,Captain's Avenue,Captain's Avenue,Ascaill an Chaptaein,Ascaill an Chaptaein,Captain's Road,E0822009,712721,731086,53.3180277,-6.3082063,BCT,MKD,OTH,SE,822G002087,822,active,2000-01-01T00:00:00.000,2020-10-29T15:46:00.000
8220DB002493,2493,Captain's Road,Captain's Road,Bóthar an Chaptaein,Bóthar an Chaptaein,Captain's Road,E0822009,712691,731119,53.3183305,-6.3086446,BCT,MKD,OTH,NW,822G002087,822,active,2000-01-01T00:00:00.000,2020-10-29T15:46:26.000
8220DB002492,2492,Stannaway Avenue,Stannaway Ave,Ascaill Bhóthar na gCloch,Asc Bhr na gCloch,Stannaway Avenue,E0822009,712747,730895,53.3163064,-6.3078841,BCT,MKD,OTH,SE,822G002088,822,active,2000-01-01T00:00:00.000,2023-05-05T14:18:03.236
8220DB002489,2489,Clonfert Road,Clonfert Road,Bóthar Chluain Fearta,Br Chluain Fearta,Stannaway Road,E0822010,713207,731252,53.3194152,-6.3008563,BCT,MKD,OTH,SW,822G002089,822,active,2000-01-01T00:00:00.000,2020-10-29T15:47:39.000
8220DB002497,2497,Sundrive Park,Sundrive Park,Páirc Ghrianréime,Páirc Ghrianréime,Sundrive Road,E0822010,713801,731368,53.32033,-6.2919036,BCT,MKD,OTH,SE,822G002090,822,active,2000-01-01T00:00:00.000,2020-10-29T15:48:07.000
8220DB002485,2485,Sundrive Road,Sundrive Road,Bóthar Ghrianréime,Bóthar Ghrianréime,Sundrive Road,E0822010,713840,731309,53.3197916,-6.2913397,BCT,MKD,OTH,NW,822G002090,822,active,2000-01-01T00:00:00.000,2020-10-29T15:48:34.000
8220DB002495,2495,Ferns Road,Ferns Road,Bóthar Fhearna,Bóthar Fhearna,Stannaway Road,E0822010,713463,731459,53.3212199,-6.2969418,BCT,MKD,OTH,NE,822G002091,822,active,2000-01-01T00:00:00.000,2020-10-29T15:49:12.000
8220DB002487,2487,Stannaway Road,Stannaway Road,Bhóthar na gCloch,Br Bhóthar na gCloch,Stannaway Road,E0822010,713572,731528,53.3218164,-6.2952818,BCT,MKD,OTH,SW,822G002091,822,active,2000-01-01T00:00:00.000,2020-10-29T16:27:45.000
8220DB002500,2500,Beckett Bridge,Beckett Bridge,Droichead Beckett,Droichead Beckett,North Wall Quay,E0822073,717025,734503,53.3477883,-6.2423799,BCT,MKD,OTH,E,822G002092,822,active,2000-01-01T00:00:00.000,2020-10-30T10:30:17.000
8220DB002501,2501,Spencer Place,Spencer Place,Plás Spencer,Plás Spencer,North Wall Quay,E0822073,717427,734467,53.3473759,-6.2363587,BCT,MKD,OTH,E,822G002093,822,active,2000-01-01T00:00:00.000,2022-04-29T11:02:15.000
8220DB002494,2494,Stannaway Road,Stannaway Road,Bóthar Bhóthar na gCloch,Br Bhóthar na gCloch,Stannaway Road,E0822009,713235,731284,53.3196967,-6.3004248,BCT,MKD,OTH,SW,822G002095,822,active,2000-01-01T00:00:00.000,2020-10-30T10:33:44.000
8220DB002496,2496,Eamonn Ceannt Park,Eamonn Ceannt Park,Páirc Éamoinn Ceannt,Páirc Éamoinn Ceannt,Sundrive Road,E0822010,713662,731547,53.3219677,-6.2939247,BCT,MKD,OTH,SE,822G002096,822,active,2000-01-01T00:00:00.000,2020-10-30T10:34:53.000
8220DB002471,2471,Larkfield Park,Larkfield Park,Gort na Fuiseoige,Gort na Fuiseoige,Larkfield Park,E0822010,713989,731189,53.3186816,-6.2891475,BCT,MKD,OTH,SE,822G002097,822,active,2000-01-01T00:00:00.000,2020-10-30T10:35:26.000
8220DB002484,2484,Larkfield Park,Larkfield Park,Gort na Fuiseoige,Gort na Fuiseoige,Larkfield Park,E0822010,713989,731174,53.3185468,-6.2891529,BCT,MKD,OTH,NW,822G002097,822,active,2000-01-01T00:00:00.000,2020-10-30T10:36:01.000
8220DB002472,2472,Harolds Cross NS,Harolds Cross NS,Scoil Náisiúinta Chrois Araild,SN Chrois Araild,Clareville Road,E0822016,714228,731083,53.3176779,-6.2856003,BCT,MKD,OTH,E,822G002098,822,active,2000-01-01T00:00:00.000,2020-10-30T10:36:56.000
8220DB002482,2482,Clareville Road,Clareville Road,Bóthar Clareville,Bóthar Clareville,Clareville Road,E0822016,714505,731228,53.3189206,-6.2813926,BCT,MKD,OTH,SW,822G002099,822,active,2000-01-01T00:00:00.000,2020-10-30T10:37:27.000
8220DB002474,2474,Westfield Road,Westfield Road,Bóthar an Ghoirt Thiar,Br an Ghoirt Thiar,Clareville Road,E0822016,714477,731209,53.318756,-6.2818195,BCT,MKD,OTH,NE,822G002099,822,active,2000-01-01T00:00:00.000,2020-10-30T10:37:59.000
8220DB002467,2467,Cashel Road,Cashel Road,Bóthar Chaisil,Bóthar Chaisil,Cashel Road,E0822009,713003,731227,53.3192342,-6.3039256,BCT,MKD,OTH,SE,822G002100,822,active,2000-01-01T00:00:00.000,2020-10-30T10:38:26.000
8220DB002451,2451,St Agnes Park,St Agnes Park,Páirc San Aignéas,Páirc San Aignéas,St. Agnes Park,E0822009,712311,731203,53.3191658,-6.3143155,BCT,MKD,OTH,W,822G002101,822,active,2000-01-01T00:00:00.000,2020-10-30T10:39:15.000
8220DB002464,2464,St Agnes Park,St Agnes Park,Páirc San Aignéas,Páirc San Aignéas,St. Agnes Park,E0822009,712391,731240,53.3194812,-6.3131022,BCT,MKD,OTH,E,822G002102,822,active,2000-01-01T00:00:00.000,2020-10-30T10:39:43.000
8220DB002465,2465,Armagh Road,Armagh Road,Bóthar Ard Mhacha,Bóthar Ard Mhacha,Armagh Road,E0822009,712667,731303,53.3199885,-6.3089393,BCT,MKD,OTH,NE,822G002103,822,active,2000-01-01T00:00:00.000,2020-10-30T10:40:14.000
8220DB002466,2466,Scoil Colm,Scoil Colm,Scoil Colm,Scoil Colm,Armagh Road,E0822009,712831,731381,53.3206542,-6.3064512,BCT,MKD,OTH,NE,822G002104,822,active,2000-01-01T00:00:00.000,2020-10-30T10:40:40.000
8220DB002481,2481,Harolds Cross Road,Harolds Cross Road,Bóthar Chrois Araild,Br Chrois Araild,Kenilworth Square North,E0822016,714726,731213,53.3187381,-6.2780827,BCT,MKD,OTH,SW,822G002105,822,active,2000-01-01T00:00:00.000,2020-10-30T10:41:10.000
8220DB002476,2476,Kenilworth Square North,Kenilworth Square N,Cearnóg Kenilworth Thuaidh,Cg Kenilworth Tdh,Kenilworth Square North,E0822016,714766,731248,53.3190438,-6.27747,BCT,MKD,OTH,NE,822G002105,822,active,2000-01-01T00:00:00.000,2023-10-11T11:43:43.565
8220DB002483,2483,Larkfield Grove,Larkfield Grove,Gort na Fuiseoige,Gort na Fuiseoige,Clareville Road,E0822016,714307,731076,53.317598,-6.2844177,BCT,MKD,OTH,W,822G002106,822,active,2000-01-01T00:00:00.000,2020-10-30T10:42:17.000
8220DB002479,2479,Grosvenor Road,Grosvenor Road,Bóthar Grosvenor,Bóthar Grosvenor,Grosvenor Road,E0822015,715242,731392,53.320234,-6.2702769,BCT,MKD,OTH,SW,822G002107,822,active,2000-01-01T00:00:00.000,2020-10-30T10:42:47.000
8220DB002478,2478,Grosvenor Road,Grosvenor Road,Bóthar Grosvenor,Bóthar Grosvenor,Grosvenor Road,E0822015,715273,731431,53.3205776,-6.2697977,BCT,MKD,OTH,NE,822G002107,822,active,2000-01-01T00:00:00.000,2020-10-30T10:43:16.000
8220DB002475,2475,Kenilworth Park,Kenilworth Park,Páirc Kenilworth,Páirc Kenilworth,Kenilworth Park,E0822016,714592,731224,53.3188659,-6.2800889,BCT,MKD,OTH,SE,822G002108,822,active,2000-01-01T00:00:00.000,2020-10-30T10:43:46.000
8220DB002480,2480,Kenilworth Road,Kenilworth Road,Bóthar Kenilworth,Bóthar Kenilworth,Kenilworth Road,E0822015,714973,731331,53.3197445,-6.2743346,BCT,MKD,OTH,SW,822G002109,822,active,2000-01-01T00:00:00.000,2020-10-30T10:44:13.000
8220DB002477,2477,Kenilworth Road,Kenilworth Road,Bóthar Kenilworth,Bóthar Kenilworth,Kenilworth Road,E0822015,714979,731346,53.3198779,-6.2742391,BCT,MKD,OTH,NE,822G002109,822,active,2000-01-01T00:00:00.000,2020-10-30T10:44:41.000
8220DB002728,2728,Walkinstown Park,Walkinstown Park,Páirc Bhaile Bhailcín,Pc Bhaile Bhailcín,Walkinstown Avenue,E0822004,710629,731409,53.3213702,-6.3394772,BCT,MKD,OTH,SE,822G002110,822,active,2000-01-01T00:00:00.000,2020-10-30T10:45:12.000
8220DB004367,4367,Jamestown Road,Jamestown Road,Bóthar Bhaile Shéamais,Br Bhaile Shéamais,Poppintree Park Lane Walk,E0822012,713759,740095,53.3987328,-6.2893963,BCT,MKD,OTH,W,822G002111,822,active,2000-01-01T00:00:00.000,2020-10-30T10:45:57.000
8220DB004368,4368,Poppintree Park,Poppintree Park,Páirc Chrann Phapáin,Páirc Chrann Phapáin,Poppintree Park Lane Walk,E0822012,713794,740106,53.3988241,-6.2888663,BCT,MKD,OTH,E,822G002111,822,active,2000-01-01T00:00:00.000,2020-10-30T10:46:34.000
8220DB004369,4369,Oakwood Road,Oakwood Road,Bóthar Choill Darach,Bóthar Choill Darach,Jamestown Road,E0822024,713566,739927,53.3972652,-6.2923575,BCT,MKD,OTH,NE,822G002112,822,active,2000-01-01T00:00:00.000,2020-10-30T10:47:06.000
8220DB004788,4788,Oakwood Road,Oakwood Road,Bóthar Choill Darach,Bóthar Choill Darach,Jamestown Road,E0822024,713557,739890,53.3969348,-6.2925061,BCT,MKD,OTH,SW,822G002112,822,active,2000-01-01T00:00:00.000,2020-10-30T10:47:35.000
8220DB006273,6273,Sycamore Road,Sycamore Road,Bóthar an tSeiceamair,Br an tSeiceamair,Sycamore Road,E0822024,713671,739708,53.3952754,-6.2908583,BCT,MKD,OTH,SE,822G002113,822,active,2000-01-01T00:00:00.000,2020-10-30T10:48:19.000
8220DB004890,4890,Sycamore Park,Sycamore Park,Páirc an tSeiceamair,Páirc an tSeiceamair,Sycamore Road,E0822024,713671,739696,53.3951676,-6.2908626,BCT,MKD,OTH,NW,822G002113,822,active,2000-01-01T00:00:00.000,2020-10-30T10:48:51.000
8220DB004366,4366,Clune Road,Clune Road,Bóthar Mhic Clúin,Bóthar Mhic Clúin,Clune Road,E0822024,713419,739250,53.3912154,-6.29481,BCT,CUS,OTH,SE,822G002114,822,active,2000-01-01T00:00:00.000,2020-10-30T10:49:25.000
8220DB004322,4322,Ashington Park,Ashington Park,Páirc Ashington,Páirc Ashington,Ashington Park,E0822019,712372,737250,53.3734732,-6.3112547,BCT,MKD,OTH,W,822G002115,822,active,2000-01-01T00:00:00.000,2020-10-30T10:49:51.000
8220DB004363,4363,Berryfield Road,Berryfield Road,Bóthar Ghort na Sméar,Br Ghort na Sméar,St. Helena's Road,E0822062,712870,738179,53.3817122,-6.3034425,BCT,MKD,OTH,S,822G002117,822,active,2000-01-01T00:00:00.000,2020-10-30T10:50:25.000
8220DB001607,1607,Dunsink Drive,Dunsink Drive,Céide Dhún Sinche,Céide Dhún Sinche,St. Helena's Road,E0822062,712870,738229,53.3821614,-6.3034246,BCT,MKD,OTH,N,822G002117,822,active,2000-01-01T00:00:00.000,2020-10-30T10:50:56.000
8220DB004365,4365,Poppintree Park,Poppintree Park,Páirc Chrann Phapáin,Pc Chrann Phapáin,Poppintree Park Lane Walk,E0822012,714141,740484,53.4021447,-6.2835143,BCT,MKD,OTH,SW,822G002118,822,active,2000-01-01T00:00:00.000,2020-10-30T10:51:27.000
8220DB004781,4781,IDA Poppintree,IDA Poppintree,IDA Crann Phapáin,IDA Crann Phapáin,Poppintree Park Lane Walk,E0822012,714106,740439,53.401748,-6.2840567,BCT,MKD,OTH,NE,822G002118,822,active,2000-01-01T00:00:00.000,2020-10-30T10:51:54.000
8220DB000136,136,McKee Road,McKee Road,Bóthar Mhic Aoidh,Bóthar Mhic Aoidh,McKee Road,E0822024,713740,739610,53.3943802,-6.2898566,BCT,MKD,OTH,SW,822G002119,822,active,2000-01-01T00:00:00.000,2020-10-30T10:52:21.000
8220DB004377,4377,Sycamore Road,Sycamore Road,Bóthar an tSeiceamair,Br an tSeiceamair,McKee Road,E0822024,713734,739622,53.3944893,-6.2899424,BCT,MKD,OTH,NE,822G002119,822,active,2000-01-01T00:00:00.000,2020-10-30T10:52:57.000
8220DB000179,179,Ballygall Road East,Ballygall Rd East,Bóthar Bhaile Gail Thoir,Br Bhaile Gail Thoir,Ballygall Road East,E0822022,714699,738066,53.3803034,-6.2760052,BCT,MKD,OTH,S,822G002120,822,active,2000-01-01T00:00:00.000,2023-05-05T09:45:11.863
8220DB000177,177,Ballygall Road East,Ballygall Rd East,Bóthar Bhaile Gall Thoir,Br Bhaile Gall Thoir,Ballygall Road East,E0822022,714684,738084,53.3804684,-6.276224,BCT,MKD,OTH,E,822G002120,822,active,2000-01-01T00:00:00.000,2023-05-05T09:44:45.307
8220DB004378,4378,Ballygall Road,Ballygall Road,Bóthar Bhaile Gall,Bóthar Bhaile Gall,Ballygall Road East,E0822022,714670,737902,53.3788365,-6.2765004,BCT,MKD,OTH,N,822G002120,822,active,2000-01-01T00:00:00.000,2020-10-30T10:55:36.000
8220DB001184,1184,Talbot Street,Talbot Street,Sráid Thalbóid,Sráid Thalbóid,Talbot Street,E0822013,716253,734826,53.3508599,-6.2538502,BCT,MKD,OTH,E,822G002121,822,active,2000-01-01T00:00:00.000,2023-06-08T14:45:50.865
8220DB000620,620,Talbot Street,Talbot Street,Sráid Thalbóid,Sráid Thalbóid,Talbot Street,E0822013,716324,734839,53.3509611,-6.2527796,BCT,MKD,OTH,E,822G002121,822,active,2000-01-01T00:00:00.000,2020-10-30T10:56:36.000
8220DB004380,4380,Mabbot Street,Mabbot Street,Sráid Mabóid,Sráid Mabóid,Talbot Street,E0822013,716276,734825,53.3508459,-6.2535053,BCT,MKD,OTH,E,822G002121,822,active,2000-01-01T00:00:00.000,2020-10-30T10:57:10.000
8220DB004479,4479,McKee Road,McKee Road,Bóthar Mhic Aoidh,Bóthar Mhic Aoidh,McKee Road,E0822024,713464,739261,53.3913045,-6.2941298,BCT,MKD,OTH,NE,822G002122,822,active,2000-01-01T00:00:00.000,2020-10-30T10:57:37.000
8220DB000193,193,Finglas Park,Finglas Park,Páirc Fhionnghlaise,Páirc Fhionnghlaise,McKee Road,E0822024,713466,739249,53.3911963,-6.294104,BCT,MKD,OTH,SW,822G002122,822,active,2000-01-01T00:00:00.000,2020-10-30T10:58:04.000
8220DB004371,4371,Drumcliffe Drive,Drumcliffe Drive,Céide Dhroim Chliabh,Céide Dhroim Chliabh,Carnlough Road,E0822019,713628,736440,53.3659286,-6.2926795,BCT,MKD,OTH,SW,822G002123,822,active,2000-01-01T00:00:00.000,2020-10-30T10:58:34.000
8220DB000822,822,Mulroy Road,Mulroy Road,Bóthar na Maoile Rua,Bóthar na Maoile Rua,Carnlough Road,E0822019,713682,736574,53.3671207,-6.2918203,BCT,MKD,OTH,N,822G002123,822,active,2000-01-01T00:00:00.000,2020-10-30T10:59:06.000
8220DB000831,831,Mulroy Road,Mulroy Road,Bóthar na Maoile Rua,Bóthar na Maoile Rua,Carnlough Road,E0822019,713713,736635,53.367662,-6.2913328,BCT,MKD,OTH,S,822G002123,822,active,2000-01-01T00:00:00.000,2020-10-30T10:59:34.000
8220DB004938,4938,Finglas Village,Finglas Village,Sráidbhaile Fhionnghlaise,Srbhl Fhionnghlaise,Mckee Avenue,E0822024,713184,739205,53.3908615,-6.2983575,BCT,MKD,OTH,S,822G002124,822,active,2000-01-01T00:00:00.000,2021-11-09T17:36:35.000
8220DB004375,4375,Jamestown Road,Jamestown Road,Bóthar Bhaile Shéamais,Br Bhaile Shéamais,Jamestown Road,E0822024,713295,739298,53.3916732,-6.2966561,BCT,MKD,OTH,NE,822G002125,822,active,2000-01-01T00:00:00.000,2020-10-30T11:00:42.000
8220DB003354,3354,Clogher Road,Clogher Road,Bóthar an Chlochair,Bóthar an Chlochair,Sundrive Road,E0822009,713438,732035,53.3263995,-6.2971108,BCT,MKD,OTH,SE,822G002126,822,active,2000-01-01T00:00:00.000,2020-10-30T11:02:00.000
8220DB003361,3361,Clogher Road,Clogher Road,Bóthar an Chlochair,Bóthar an Chlochair,Sundrive Road,E0822009,713429,732017,53.3262397,-6.2972523,BCT,MKD,OTH,NW,822G002126,822,active,2000-01-01T00:00:00.000,2020-10-30T11:02:30.000
8220DB001401,1401,Clogher Road,Clogher Road,Bóthar an Chlochair,Bóthar an Chlochair,Clogher Road,E0822009,713338,731921,53.3253968,-6.298652,BCT,MKD,OTH,E,822G002127,822,active,2000-01-01T00:00:00.000,2020-10-30T11:03:56.000
8220DB003355,3355,Slane Road,Slane Road,Bóthar Bhaile Shláine,Br Bhaile Shláine,Clogher Road,E0822009,713400,731932,53.3254824,-6.2977178,BCT,MKD,OTH,SW,822G002127,822,active,2000-01-01T00:00:00.000,2020-10-30T11:25:42.000
8220DB003357,3357,Clonmacnoise Grove,Clonmacnoise Grove,Garrán Chluain Mhic Nóis,Gn Chluain Mhic Nóis,Clonmacnoise Road,E0822009,713130,731535,53.3219738,-6.3019105,BCT,MKD,OTH,SW,822G002128,822,active,2000-01-01T00:00:00.000,2020-10-30T11:26:13.000
8220DB001392,1392,Bangor Circle,Bangor Circle,Ciorcal Bheannchair,Ciorcal Bheannchair,Clonmacnoise Road,E0822009,713148,731593,53.322491,-6.3016198,BCT,MKD,OTH,N,822G002128,822,active,2000-01-01T00:00:00.000,2020-10-30T11:26:40.000
8220DB003362,3362,Downpatrick Road,Downpatrick Road,Bóthar Dhún Pádraig,Bóthar Dhún Pádraig,Sundrive Road,E0822017,713375,732149,53.327437,-6.2980153,BCT,MKD,OTH,NW,822G002129,822,active,2000-01-01T00:00:00.000,2020-10-30T11:27:11.000
8220DB003353,3353,Downpatrick Road,Downpatrick Road,Bóthar Dhún Pádraig,Bóthar Dhún Pádraig,Sundrive Road,E0822017,713378,732183,53.3277418,-6.2979581,BCT,MKD,OTH,SE,822G002129,822,active,2000-01-01T00:00:00.000,2020-10-30T11:27:37.000
8220DB002816,2816,Glenmalure Square,Glenmalure Square,Cearnóg Ghleann Molúra,Cg Ghleann Molúra,Milltown Road,E0822031,716858,730767,53.3142658,-6.2462642,BCT,MKD,OTH,S,822G002133,822,active,2000-01-01T00:00:00.000,2020-10-30T11:28:10.000
